{
 "type": "FeatureCollection",
"features": [
 {
 "type": "Feature",
"geometry": {
 "type": "Point",
"coordinates": [ -149.14071,  60.970723 ] 
},
"properties": {
 "name": "Abes",
"trail1": "Abes",
"id": null,
"trail_ids": 1,
"steward_id": "NA",
"address": "",
"parking": "",
"drinkwater": "",
"source": "TestOrganization",
"restrooms": "",
"kiosk": "",
"osm_tags": "" 
} 
},
{
 "type": "Feature",
"geometry": {
 "type": "Point",
"coordinates": [ -149.273478,  61.232794 ] 
},
"properties": {
 "name": "Albert Loop",
"trail1": "Albert Loop",
"id": null,
"trail_ids": 2,
"steward_id": "NA",
"address": "",
"parking": "",
"drinkwater": "",
"source": "TestOrganization",
"restrooms": "",
"kiosk": "",
"osm_tags": "" 
} 
},
{
 "type": "Feature",
"geometry": {
 "type": "Point",
"coordinates": [ -149.714505,   61.12697 ] 
},
"properties": {
 "name": "Alder",
"trail1": "Alder",
"id": null,
"trail_ids": 3,
"steward_id": "NA",
"address": "",
"parking": "",
"drinkwater": "",
"source": "TestOrganization",
"restrooms": "",
"kiosk": "",
"osm_tags": "" 
} 
},
{
 "type": "Feature",
"geometry": {
 "type": "Point",
"coordinates": [ -149.707855,  61.127817 ] 
},
"properties": {
 "name": "Alder 2",
"trail1": "Alder 2",
"id": null,
"trail_ids": 4,
"steward_id": "NA",
"address": "",
"parking": "",
"drinkwater": "",
"source": "TestOrganization",
"restrooms": "",
"kiosk": "",
"osm_tags": "" 
} 
},
{
 "type": "Feature",
"geometry": {
 "type": "Point",
"coordinates": [ -149.683243,  61.103533 ] 
},
"properties": {
 "name": "Anchorage Overlook",
"trail1": "Anchorage Overlook",
"id": null,
"trail_ids": 5,
"steward_id": "NA",
"address": "",
"parking": "",
"drinkwater": "",
"source": "TestOrganization",
"restrooms": "",
"kiosk": "",
"osm_tags": "" 
} 
},
{
 "type": "Feature",
"geometry": {
 "type": "Point",
"coordinates": [ -149.639317,  61.105821 ] 
},
"properties": {
 "name": "Ballpark",
"trail1": "Ballpark",
"id": null,
"trail_ids": 6,
"steward_id": "NA",
"address": "",
"parking": "",
"drinkwater": "",
"source": "TestOrganization",
"restrooms": "",
"kiosk": "",
"osm_tags": "" 
} 
},
{
 "type": "Feature",
"geometry": {
 "type": "Point",
"coordinates": [ -149.365574,  61.406056 ] 
},
"properties": {
 "name": "Bear Point",
"trail1": "Bear Point",
"id": null,
"trail_ids": 7,
"steward_id": "NA",
"address": "",
"parking": "",
"drinkwater": "",
"source": "TestOrganization",
"restrooms": "",
"kiosk": "",
"osm_tags": "" 
} 
},
{
 "type": "Feature",
"geometry": {
 "type": "Point",
"coordinates": [ -149.475942,  60.976147 ] 
},
"properties": {
 "name": "Bird Ridge",
"trail1": "Bird Ridge",
"id": null,
"trail_ids": 8,
"steward_id": "NA",
"address": "",
"parking": "",
"drinkwater": "",
"source": "TestOrganization",
"restrooms": "",
"kiosk": "",
"osm_tags": "" 
} 
},
{
 "type": "Feature",
"geometry": {
 "type": "Point",
"coordinates": [ -149.403849,  61.024493 ] 
},
"properties": {
 "name": "Bird Creek",
"trail1": "Bird Creek",
"id": null,
"trail_ids": 9,
"steward_id": "NA",
"address": "",
"parking": "",
"drinkwater": "",
"source": "TestOrganization",
"restrooms": "",
"kiosk": "",
"osm_tags": "" 
} 
},
{
 "type": "Feature",
"geometry": {
 "type": "Point",
"coordinates": [ -149.346534,  60.929112 ] 
},
"properties": {
 "name": "Bird Point Interp",
"trail1": "Bird Point Interp",
"id": null,
"trail_ids": 10,
"steward_id": "NA",
"address": "",
"parking": "",
"drinkwater": "",
"source": "TestOrganization",
"restrooms": "",
"kiosk": "",
"osm_tags": "" 
} 
},
{
 "type": "Feature",
"geometry": {
 "type": "Point",
"coordinates": [ -149.479836,  60.978913 ] 
},
"properties": {
 "name": "Bird Ridge Interp",
"trail1": "Bird Ridge Interp",
"id": null,
"trail_ids": 11,
"steward_id": "NA",
"address": "",
"parking": "",
"drinkwater": "",
"source": "TestOrganization",
"restrooms": "",
"kiosk": "",
"osm_tags": "" 
} 
},
{
 "type": "Feature",
"geometry": {
 "type": "Point",
"coordinates": [ -149.433487,  60.974056 ] 
},
"properties": {
 "name": "Bird Valley",
"trail1": "Bird Valley",
"id": null,
"trail_ids": 12,
"steward_id": "NA",
"address": "",
"parking": "",
"drinkwater": "",
"source": "TestOrganization",
"restrooms": "",
"kiosk": "",
"osm_tags": "" 
} 
},
{
 "type": "Feature",
"geometry": {
 "type": "Point",
"coordinates": [ -149.493223,  61.335963 ] 
},
"properties": {
 "name": "Blacktail Ptarmigan Rocks",
"trail1": "Blacktail Ptarmigan Rocks",
"id": null,
"trail_ids": 13,
"steward_id": "NA",
"address": "",
"parking": "",
"drinkwater": "",
"source": "TestOrganization",
"restrooms": "",
"kiosk": "",
"osm_tags": "" 
} 
},
{
 "type": "Feature",
"geometry": {
 "type": "Point",
"coordinates": [ -149.69363,  61.123637 ] 
},
"properties": {
 "name": "Blueberry Hollow",
"trail1": "Blueberry Hollow",
"id": null,
"trail_ids": 14,
"steward_id": "NA",
"address": "",
"parking": "",
"drinkwater": "",
"source": "TestOrganization",
"restrooms": "",
"kiosk": "",
"osm_tags": "" 
} 
},
{
 "type": "Feature",
"geometry": {
 "type": "Point",
"coordinates": [ -149.683211,  61.103005 ] 
},
"properties": {
 "name": "Blueberry Loop",
"trail1": "Blueberry Loop",
"id": null,
"trail_ids": 15,
"steward_id": "NA",
"address": "",
"parking": "",
"drinkwater": "",
"source": "TestOrganization",
"restrooms": "",
"kiosk": "",
"osm_tags": "" 
} 
},
{
 "type": "Feature",
"geometry": {
 "type": "Point",
"coordinates": [ -149.021555,  61.375287 ] 
},
"properties": {
 "name": "Bold Ridge",
"trail1": "Bold Ridge",
"id": null,
"trail_ids": 16,
"steward_id": "NA",
"address": "",
"parking": "",
"drinkwater": "",
"source": "TestOrganization",
"restrooms": "",
"kiosk": "",
"osm_tags": "" 
} 
},
{
 "type": "Feature",
"geometry": {
 "type": "Point",
"coordinates": [ -149.135206,  60.967987 ] 
},
"properties": {
 "name": "Cali Creek",
"trail1": "Cali Creek",
"id": null,
"trail_ids": 17,
"steward_id": "NA",
"address": "",
"parking": "",
"drinkwater": "",
"source": "TestOrganization",
"restrooms": "",
"kiosk": "",
"osm_tags": "" 
} 
},
{
 "type": "Feature",
"geometry": {
 "type": "Point",
"coordinates": [ -149.273337,  61.233688 ] 
},
"properties": {
 "name": "Connector 1",
"trail1": "Connector 1",
"id": null,
"trail_ids": 18,
"steward_id": "NA",
"address": "",
"parking": "",
"drinkwater": "",
"source": "TestOrganization",
"restrooms": "",
"kiosk": "",
"osm_tags": "" 
} 
},
{
 "type": "Feature",
"geometry": {
 "type": "Point",
"coordinates": [ -149.268303,    61.2264 ] 
},
"properties": {
 "name": "Connector 2",
"trail1": "Connector 2",
"id": null,
"trail_ids": 19,
"steward_id": "NA",
"address": "",
"parking": "",
"drinkwater": "",
"source": "TestOrganization",
"restrooms": "",
"kiosk": "",
"osm_tags": "" 
} 
},
{
 "type": "Feature",
"geometry": {
 "type": "Point",
"coordinates": [ -149.116118,  61.028207 ] 
},
"properties": {
 "name": "Crow Pass",
"trail1": "Crow Pass",
"id": null,
"trail_ids": 20,
"steward_id": "NA",
"address": "",
"parking": "",
"drinkwater": "",
"source": "TestOrganization",
"restrooms": "",
"kiosk": "",
"osm_tags": "" 
} 
},
{
 "type": "Feature",
"geometry": {
 "type": "Point",
"coordinates": [ -149.706309,  61.123878 ] 
},
"properties": {
 "name": "Denali View",
"trail1": "Denali View",
"id": null,
"trail_ids": 21,
"steward_id": "NA",
"address": "",
"parking": "",
"drinkwater": "",
"source": "TestOrganization",
"restrooms": "",
"kiosk": "",
"osm_tags": "" 
} 
},
{
 "type": "Feature",
"geometry": {
 "type": "Point",
"coordinates": [ -149.270206,  61.230308 ] 
},
"properties": {
 "name": "Dew Mound",
"trail1": "Dew Mound",
"id": null,
"trail_ids": 22,
"steward_id": "NA",
"address": "",
"parking": "",
"drinkwater": "",
"source": "TestOrganization",
"restrooms": "",
"kiosk": "",
"osm_tags": "" 
} 
},
{
 "type": "Feature",
"geometry": {
 "type": "Point",
"coordinates": [ -149.530515,  61.296565 ] 
},
"properties": {
 "name": "Eagle River Greenbelt",
"trail1": "Eagle River Greenbelt",
"id": null,
"trail_ids": 23,
"steward_id": "NA",
"address": "",
"parking": "",
"drinkwater": "",
"source": "TestOrganization",
"restrooms": "",
"kiosk": "",
"osm_tags": "" 
} 
},
{
 "type": "Feature",
"geometry": {
 "type": "Point",
"coordinates": [ -149.379326,  61.276367 ] 
},
"properties": {
 "name": "Eagle River North Fork Access",
"trail1": "Eagle River North Fork Access",
"id": null,
"trail_ids": 24,
"steward_id": "NA",
"address": "",
"parking": "",
"drinkwater": "",
"source": "TestOrganization",
"restrooms": "",
"kiosk": "",
"osm_tags": "" 
} 
},
{
 "type": "Feature",
"geometry": {
 "type": "Point",
"coordinates": [ -148.97247,   61.31499 ] 
},
"properties": {
 "name": "East Fork Eklutha River",
"trail1": "East Fork Eklutha River",
"id": null,
"trail_ids": 25,
"steward_id": "NA",
"address": "",
"parking": "",
"drinkwater": "",
"source": "TestOrganization",
"restrooms": "",
"kiosk": "",
"osm_tags": "" 
} 
},
{
 "type": "Feature",
"geometry": {
 "type": "Point",
"coordinates": [ -148.974875,  61.285063 ] 
},
"properties": {
 "name": "Eklutna Lakeside",
"trail1": "Eklutna Lakeside",
"id": null,
"trail_ids": 26,
"steward_id": "NA",
"address": "",
"parking": "",
"drinkwater": "",
"source": "TestOrganization",
"restrooms": "",
"kiosk": "",
"osm_tags": "" 
} 
},
{
 "type": "Feature",
"geometry": {
 "type": "Point",
"coordinates": [ -149.136819,  61.410593 ] 
},
"properties": {
 "name": "Eklutna ATV Access",
"trail1": "Eklutna ATV Access",
"id": null,
"trail_ids": 27,
"steward_id": "NA",
"address": "",
"parking": "",
"drinkwater": "",
"source": "TestOrganization",
"restrooms": "",
"kiosk": "",
"osm_tags": "" 
} 
},
{
 "type": "Feature",
"geometry": {
 "type": "Point",
"coordinates": [ -149.13543,  61.409517 ] 
},
"properties": {
 "name": "Eklutna Lake Spillway",
"trail1": "Eklutna Lake Spillway",
"id": null,
"trail_ids": 28,
"steward_id": "NA",
"address": "",
"parking": "",
"drinkwater": "",
"source": "TestOrganization",
"restrooms": "",
"kiosk": "",
"osm_tags": "" 
} 
},
{
 "type": "Feature",
"geometry": {
 "type": "Point",
"coordinates": [ -149.13543,  61.409517 ] 
},
"properties": {
 "name": "Eklutna Spillway",
"trail1": "Eklutna Spillway",
"id": null,
"trail_ids": 29,
"steward_id": "NA",
"address": "",
"parking": "",
"drinkwater": "",
"source": "TestOrganization",
"restrooms": "",
"kiosk": "",
"osm_tags": "" 
} 
},
{
 "type": "Feature",
"geometry": {
 "type": "Point",
"coordinates": [ -149.282167,  61.220916 ] 
},
"properties": {
 "name": "ER Access1",
"trail1": "ER Access1",
"id": null,
"trail_ids": 30,
"steward_id": "NA",
"address": "",
"parking": "",
"drinkwater": "",
"source": "TestOrganization",
"restrooms": "",
"kiosk": "",
"osm_tags": "" 
} 
},
{
 "type": "Feature",
"geometry": {
 "type": "Point",
"coordinates": [ -149.28229,  61.221855 ] 
},
"properties": {
 "name": "ER Access2",
"trail1": "ER Access2",
"id": null,
"trail_ids": 31,
"steward_id": "NA",
"address": "",
"parking": "",
"drinkwater": "",
"source": "TestOrganization",
"restrooms": "",
"kiosk": "",
"osm_tags": "" 
} 
},
{
 "type": "Feature",
"geometry": {
 "type": "Point",
"coordinates": [ -149.287074,  61.231236 ] 
},
"properties": {
 "name": "ER Access3",
"trail1": "ER Access3",
"id": null,
"trail_ids": 32,
"steward_id": "NA",
"address": "",
"parking": "",
"drinkwater": "",
"source": "TestOrganization",
"restrooms": "",
"kiosk": "",
"osm_tags": "" 
} 
},
{
 "type": "Feature",
"geometry": {
 "type": "Point",
"coordinates": [ -149.575927,  60.984346 ] 
},
"properties": {
 "name": "Falls Creek",
"trail1": "Falls Creek",
"id": null,
"trail_ids": 33,
"steward_id": "NA",
"address": "",
"parking": "",
"drinkwater": "",
"source": "TestOrganization",
"restrooms": "",
"kiosk": "",
"osm_tags": "" 
} 
},
{
 "type": "Feature",
"geometry": {
 "type": "Point",
"coordinates": [ -149.676564,   61.09599 ] 
},
"properties": {
 "name": "Flattop Peak",
"trail1": "Flattop Peak",
"id": null,
"trail_ids": 34,
"steward_id": "NA",
"address": "",
"parking": "",
"drinkwater": "",
"source": "TestOrganization",
"restrooms": "",
"kiosk": "",
"osm_tags": "" 
} 
},
{
 "type": "Feature",
"geometry": {
 "type": "Point",
"coordinates": [ -149.676337,  61.093019 ] 
},
"properties": {
 "name": "Flattop Peak Alternate",
"trail1": "Flattop Peak Alternate",
"id": null,
"trail_ids": 35,
"steward_id": "NA",
"address": "",
"parking": "",
"drinkwater": "",
"source": "TestOrganization",
"restrooms": "",
"kiosk": "",
"osm_tags": "" 
} 
},
{
 "type": "Feature",
"geometry": {
 "type": "Point",
"coordinates": [ -149.265803,  61.224023 ] 
},
"properties": {
 "name": "Four Corners Loop",
"trail1": "Four Corners Loop",
"id": null,
"trail_ids": 36,
"steward_id": "NA",
"address": "",
"parking": "",
"drinkwater": "",
"source": "TestOrganization",
"restrooms": "",
"kiosk": "",
"osm_tags": "" 
} 
},
{
 "type": "Feature",
"geometry": {
 "type": "Point",
"coordinates": [ -149.676153,  61.107303 ] 
},
"properties": {
 "name": "Gasline",
"trail1": "Gasline",
"id": null,
"trail_ids": 37,
"steward_id": "NA",
"address": "",
"parking": "",
"drinkwater": "",
"source": "TestOrganization",
"restrooms": "",
"kiosk": "",
"osm_tags": "" 
} 
},
{
 "type": "Feature",
"geometry": {
 "type": "Point",
"coordinates": [ -149.707637,  61.140266 ] 
},
"properties": {
 "name": "Golden Grass",
"trail1": "Golden Grass",
"id": null,
"trail_ids": 38,
"steward_id": "NA",
"address": "",
"parking": "",
"drinkwater": "",
"source": "TestOrganization",
"restrooms": "",
"kiosk": "",
"osm_tags": "" 
} 
},
{
 "type": "Feature",
"geometry": {
 "type": "Point",
"coordinates": [ -149.688434,  61.072439 ] 
},
"properties": {
 "name": "Grand View",
"trail1": "Grand View",
"id": null,
"trail_ids": 39,
"steward_id": "NA",
"address": "",
"parking": "",
"drinkwater": "",
"source": "TestOrganization",
"restrooms": "",
"kiosk": "",
"osm_tags": "" 
} 
},
{
 "type": "Feature",
"geometry": {
 "type": "Point",
"coordinates": [ -149.418332,  61.208614 ] 
},
"properties": {
 "name": "Hanging Valley",
"trail1": "Hanging Valley",
"id": null,
"trail_ids": 40,
"steward_id": "NA",
"address": "",
"parking": "",
"drinkwater": "",
"source": "TestOrganization",
"restrooms": "",
"kiosk": "",
"osm_tags": "" 
} 
},
{
 "type": "Feature",
"geometry": {
 "type": "Point",
"coordinates": [ -149.690485,   61.11679 ] 
},
"properties": {
 "name": "Hemlock Knob",
"trail1": "Hemlock Knob",
"id": null,
"trail_ids": 41,
"steward_id": "NA",
"address": "",
"parking": "",
"drinkwater": "",
"source": "TestOrganization",
"restrooms": "",
"kiosk": "",
"osm_tags": "" 
} 
},
{
 "type": "Feature",
"geometry": {
 "type": "Point",
"coordinates": [ -149.591501,  61.089601 ] 
},
"properties": {
 "name": "Hidden Lake",
"trail1": "Hidden Lake",
"id": null,
"trail_ids": 42,
"steward_id": "NA",
"address": "",
"parking": "",
"drinkwater": "",
"source": "TestOrganization",
"restrooms": "",
"kiosk": "",
"osm_tags": "" 
} 
},
{
 "type": "Feature",
"geometry": {
 "type": "Point",
"coordinates": [ -149.483909,  61.081824 ] 
},
"properties": {
 "name": "Indian Creek Pass",
"trail1": "Indian Creek Pass",
"id": null,
"trail_ids": 43,
"steward_id": "NA",
"address": "",
"parking": "",
"drinkwater": "",
"source": "TestOrganization",
"restrooms": "",
"kiosk": "",
"osm_tags": "" 
} 
},
{
 "type": "Feature",
"geometry": {
 "type": "Point",
"coordinates": [ -149.170621,  60.943745 ] 
},
"properties": {
 "name": "Indian To Bird Bike",
"trail1": "Indian To Bird Bike",
"id": null,
"trail_ids": 44,
"steward_id": "NA",
"address": "",
"parking": "",
"drinkwater": "",
"source": "TestOrganization",
"restrooms": "",
"kiosk": "",
"osm_tags": "" 
} 
},
{
 "type": "Feature",
"geometry": {
 "type": "Point",
"coordinates": [ -149.361745,  61.202717 ] 
},
"properties": {
 "name": "Lake Spur HV",
"trail1": "Lake Spur HV",
"id": null,
"trail_ids": 45,
"steward_id": "NA",
"address": "",
"parking": "",
"drinkwater": "",
"source": "TestOrganization",
"restrooms": "",
"kiosk": "",
"osm_tags": "" 
} 
},
{
 "type": "Feature",
"geometry": {
 "type": "Point",
"coordinates": [ -149.692053,   61.13969 ] 
},
"properties": {
 "name": "Little Loop",
"trail1": "Little Loop",
"id": null,
"trail_ids": 46,
"steward_id": "NA",
"address": "",
"parking": "",
"drinkwater": "",
"source": "TestOrganization",
"restrooms": "",
"kiosk": "",
"osm_tags": "" 
} 
},
{
 "type": "Feature",
"geometry": {
 "type": "Point",
"coordinates": [ -149.657858,   61.10226 ] 
},
"properties": {
 "name": "Little Omalley",
"trail1": "Little Omalley",
"id": null,
"trail_ids": 47,
"steward_id": "NA",
"address": "",
"parking": "",
"drinkwater": "",
"source": "TestOrganization",
"restrooms": "",
"kiosk": "",
"osm_tags": "" 
} 
},
{
 "type": "Feature",
"geometry": {
 "type": "Point",
"coordinates": [ -149.581879,  61.132685 ] 
},
"properties": {
 "name": "Long Lake",
"trail1": "Long Lake",
"id": null,
"trail_ids": 48,
"steward_id": "NA",
"address": "",
"parking": "",
"drinkwater": "",
"source": "TestOrganization",
"restrooms": "",
"kiosk": "",
"osm_tags": "" 
} 
},
{
 "type": "Feature",
"geometry": {
 "type": "Point",
"coordinates": [ -149.714169,  61.151535 ] 
},
"properties": {
 "name": "Lost Cabin Valley",
"trail1": "Lost Cabin Valley",
"id": null,
"trail_ids": 49,
"steward_id": "NA",
"address": "",
"parking": "",
"drinkwater": "",
"source": "TestOrganization",
"restrooms": "",
"kiosk": "",
"osm_tags": "" 
} 
},
{
 "type": "Feature",
"geometry": {
 "type": "Point",
"coordinates": [ -149.58618,  61.039198 ] 
},
"properties": {
 "name": "McHugh Lake",
"trail1": "McHugh Lake",
"id": null,
"trail_ids": 50,
"steward_id": "NA",
"address": "",
"parking": "",
"drinkwater": "",
"source": "TestOrganization",
"restrooms": "",
"kiosk": "",
"osm_tags": "" 
} 
},
{
 "type": "Feature",
"geometry": {
 "type": "Point",
"coordinates": [ -149.420003,  61.324163 ] 
},
"properties": {
 "name": "Meadow Creek",
"trail1": "Meadow Creek",
"id": null,
"trail_ids": 51,
"steward_id": "NA",
"address": "",
"parking": "",
"drinkwater": "",
"source": "TestOrganization",
"restrooms": "",
"kiosk": "",
"osm_tags": "" 
} 
},
{
 "type": "Feature",
"geometry": {
 "type": "Point",
"coordinates": [ -149.668466,    61.1025 ] 
},
"properties": {
 "name": "Middle Fork Loop",
"trail1": "Middle Fork Loop",
"id": null,
"trail_ids": 52,
"steward_id": "NA",
"address": "",
"parking": "",
"drinkwater": "",
"source": "TestOrganization",
"restrooms": "",
"kiosk": "",
"osm_tags": "" 
} 
},
{
 "type": "Feature",
"geometry": {
 "type": "Point",
"coordinates": [ -149.462548,  61.318298 ] 
},
"properties": {
 "name": "Mile High Ridge",
"trail1": "Mile High Ridge",
"id": null,
"trail_ids": 53,
"steward_id": "NA",
"address": "",
"parking": "",
"drinkwater": "",
"source": "TestOrganization",
"restrooms": "",
"kiosk": "",
"osm_tags": "" 
} 
},
{
 "type": "Feature",
"geometry": {
 "type": "Point",
"coordinates": [ -149.464797,   61.31347 ] 
},
"properties": {
 "name": "Mile High Saddle",
"trail1": "Mile High Saddle",
"id": null,
"trail_ids": 54,
"steward_id": "NA",
"address": "",
"parking": "",
"drinkwater": "",
"source": "TestOrganization",
"restrooms": "",
"kiosk": "",
"osm_tags": "" 
} 
},
{
 "type": "Feature",
"geometry": {
 "type": "Point",
"coordinates": [ -149.267766,  61.215676 ] 
},
"properties": {
 "name": "Mountain Meadow",
"trail1": "Mountain Meadow",
"id": null,
"trail_ids": 55,
"steward_id": "NA",
"address": "",
"parking": "",
"drinkwater": "",
"source": "TestOrganization",
"restrooms": "",
"kiosk": "",
"osm_tags": "" 
} 
},
{
 "type": "Feature",
"geometry": {
 "type": "Point",
"coordinates": [ -149.511898,  61.337368 ] 
},
"properties": {
 "name": "Mt Baldy",
"trail1": "Mt Baldy",
"id": null,
"trail_ids": 56,
"steward_id": "NA",
"address": "",
"parking": "",
"drinkwater": "",
"source": "TestOrganization",
"restrooms": "",
"kiosk": "",
"osm_tags": "" 
} 
},
{
 "type": "Feature",
"geometry": {
 "type": "Point",
"coordinates": [ -149.377781,  61.391293 ] 
},
"properties": {
 "name": "Mt Eklutna",
"trail1": "Mt Eklutna",
"id": null,
"trail_ids": 57,
"steward_id": "NA",
"address": "",
"parking": "",
"drinkwater": "",
"source": "TestOrganization",
"restrooms": "",
"kiosk": "",
"osm_tags": "" 
} 
},
{
 "type": "Feature",
"geometry": {
 "type": "Point",
"coordinates": [ -149.53812,  61.240914 ] 
},
"properties": {
 "name": "Muktuk Marstib Memorial",
"trail1": "Muktuk Marstib Memorial",
"id": null,
"trail_ids": 58,
"steward_id": "NA",
"address": "",
"parking": "",
"drinkwater": "",
"source": "TestOrganization",
"restrooms": "",
"kiosk": "",
"osm_tags": "" 
} 
},
{
 "type": "Feature",
"geometry": {
 "type": "Point",
"coordinates": [ -149.680206,  61.146846 ] 
},
"properties": {
 "name": "Near Point",
"trail1": "Near Point",
"id": null,
"trail_ids": 59,
"steward_id": "NA",
"address": "",
"parking": "",
"drinkwater": "",
"source": "TestOrganization",
"restrooms": "",
"kiosk": "",
"osm_tags": "" 
} 
},
{
 "type": "Feature",
"geometry": {
 "type": "Point",
"coordinates": [ -149.675564,  61.152366 ] 
},
"properties": {
 "name": "North Fork",
"trail1": "North Fork",
"id": null,
"trail_ids": 60,
"steward_id": "NA",
"address": "",
"parking": "",
"drinkwater": "",
"source": "TestOrganization",
"restrooms": "",
"kiosk": "",
"osm_tags": "" 
} 
},
{
 "type": "Feature",
"geometry": {
 "type": "Point",
"coordinates": [ -149.699438,  61.134184 ] 
},
"properties": {
 "name": "Panorama View",
"trail1": "Panorama View",
"id": null,
"trail_ids": 61,
"steward_id": "NA",
"address": "",
"parking": "",
"drinkwater": "",
"source": "TestOrganization",
"restrooms": "",
"kiosk": "",
"osm_tags": "" 
} 
},
{
 "type": "Feature",
"geometry": {
 "type": "Point",
"coordinates": [ -149.506158,  61.248942 ] 
},
"properties": {
 "name": "Peak Spor RR",
"trail1": "Peak Spor RR",
"id": null,
"trail_ids": 62,
"steward_id": "NA",
"address": "",
"parking": "",
"drinkwater": "",
"source": "TestOrganization",
"restrooms": "",
"kiosk": "",
"osm_tags": "" 
} 
},
{
 "type": "Feature",
"geometry": {
 "type": "Point",
"coordinates": [ -149.423939,  60.979886 ] 
},
"properties": {
 "name": "Penguin Peak",
"trail1": "Penguin Peak",
"id": null,
"trail_ids": 63,
"steward_id": "NA",
"address": "",
"parking": "",
"drinkwater": "",
"source": "TestOrganization",
"restrooms": "",
"kiosk": "",
"osm_tags": "" 
} 
},
{
 "type": "Feature",
"geometry": {
 "type": "Point",
"coordinates": [ -149.406509,  60.990257 ] 
},
"properties": {
 "name": "Penguin Creek",
"trail1": "Penguin Creek",
"id": null,
"trail_ids": 64,
"steward_id": "NA",
"address": "",
"parking": "",
"drinkwater": "",
"source": "TestOrganization",
"restrooms": "",
"kiosk": "",
"osm_tags": "" 
} 
},
{
 "type": "Feature",
"geometry": {
 "type": "Point",
"coordinates": [ -149.412564,  61.397395 ] 
},
"properties": {
 "name": "Peters Valley",
"trail1": "Peters Valley",
"id": null,
"trail_ids": 65,
"steward_id": "NA",
"address": "",
"parking": "",
"drinkwater": "",
"source": "TestOrganization",
"restrooms": "",
"kiosk": "",
"osm_tags": "" 
} 
},
{
 "type": "Feature",
"geometry": {
 "type": "Point",
"coordinates": [ -149.710329,  61.112389 ] 
},
"properties": {
 "name": "Picnic Loop",
"trail1": "Picnic Loop",
"id": null,
"trail_ids": 66,
"steward_id": "NA",
"address": "",
"parking": "",
"drinkwater": "",
"source": "TestOrganization",
"restrooms": "",
"kiosk": "",
"osm_tags": "" 
} 
},
{
 "type": "Feature",
"geometry": {
 "type": "Point",
"coordinates": [ -149.49978,  60.999838 ] 
},
"properties": {
 "name": "Powerline",
"trail1": "Powerline",
"id": null,
"trail_ids": 67,
"steward_id": "NA",
"address": "",
"parking": "",
"drinkwater": "",
"source": "TestOrganization",
"restrooms": "",
"kiosk": "",
"osm_tags": "" 
} 
},
{
 "type": "Feature",
"geometry": {
 "type": "Point",
"coordinates": [ -149.683117,  61.103058 ] 
},
"properties": {
 "name": "Powerline Access",
"trail1": "Powerline Access",
"id": null,
"trail_ids": 68,
"steward_id": "NA",
"address": "",
"parking": "",
"drinkwater": "",
"source": "TestOrganization",
"restrooms": "",
"kiosk": "",
"osm_tags": "" 
} 
},
{
 "type": "Feature",
"geometry": {
 "type": "Point",
"coordinates": [ -149.467867,  61.389369 ] 
},
"properties": {
 "name": "Ptarmigan Valley",
"trail1": "Ptarmigan Valley",
"id": null,
"trail_ids": 69,
"steward_id": "NA",
"address": "",
"parking": "",
"drinkwater": "",
"source": "TestOrganization",
"restrooms": "",
"kiosk": "",
"osm_tags": "" 
} 
},
{
 "type": "Feature",
"geometry": {
 "type": "Point",
"coordinates": [ -149.608153,   61.07138 ] 
},
"properties": {
 "name": "Ptarmigan Pass",
"trail1": "Ptarmigan Pass",
"id": null,
"trail_ids": 70,
"steward_id": "NA",
"address": "",
"parking": "",
"drinkwater": "",
"source": "TestOrganization",
"restrooms": "",
"kiosk": "",
"osm_tags": "" 
} 
},
{
 "type": "Feature",
"geometry": {
 "type": "Point",
"coordinates": [ -149.269647,  61.221395 ] 
},
"properties": {
 "name": "Public Use Cabin",
"trail1": "Public Use Cabin",
"id": null,
"trail_ids": 71,
"steward_id": "NA",
"address": "",
"parking": "",
"drinkwater": "",
"source": "TestOrganization",
"restrooms": "",
"kiosk": "",
"osm_tags": "" 
} 
},
{
 "type": "Feature",
"geometry": {
 "type": "Point",
"coordinates": [  -149.6776,   61.07935 ] 
},
"properties": {
 "name": "Rabbit Lake",
"trail1": "Rabbit Lake",
"id": null,
"trail_ids": 72,
"steward_id": "NA",
"address": "",
"parking": "",
"drinkwater": "",
"source": "TestOrganization",
"restrooms": "",
"kiosk": "",
"osm_tags": "" 
} 
},
{
 "type": "Feature",
"geometry": {
 "type": "Point",
"coordinates": [ -149.265396,  61.209502 ] 
},
"properties": {
 "name": "Rapids Camp Loop",
"trail1": "Rapids Camp Loop",
"id": null,
"trail_ids": 73,
"steward_id": "NA",
"address": "",
"parking": "",
"drinkwater": "",
"source": "TestOrganization",
"restrooms": "",
"kiosk": "",
"osm_tags": "" 
} 
},
{
 "type": "Feature",
"geometry": {
 "type": "Point",
"coordinates": [ -149.265976,  61.209882 ] 
},
"properties": {
 "name": "Rapids Camp Yurt",
"trail1": "Rapids Camp Yurt",
"id": null,
"trail_ids": 74,
"steward_id": "NA",
"address": "",
"parking": "",
"drinkwater": "",
"source": "TestOrganization",
"restrooms": "",
"kiosk": "",
"osm_tags": "" 
} 
},
{
 "type": "Feature",
"geometry": {
 "type": "Point",
"coordinates": [ -149.284497,  61.225477 ] 
},
"properties": {
 "name": "River Loop",
"trail1": "River Loop",
"id": null,
"trail_ids": 75,
"steward_id": "NA",
"address": "",
"parking": "",
"drinkwater": "",
"source": "TestOrganization",
"restrooms": "",
"kiosk": "",
"osm_tags": "" 
} 
},
{
 "type": "Feature",
"geometry": {
 "type": "Point",
"coordinates": [ -149.281769,  61.221295 ] 
},
"properties": {
 "name": "River Loop Yurt",
"trail1": "River Loop Yurt",
"id": null,
"trail_ids": 76,
"steward_id": "NA",
"address": "",
"parking": "",
"drinkwater": "",
"source": "TestOrganization",
"restrooms": "",
"kiosk": "",
"osm_tags": "" 
} 
},
{
 "type": "Feature",
"geometry": {
 "type": "Point",
"coordinates": [ -149.271619,  61.230839 ] 
},
"properties": {
 "name": "RL Interp",
"trail1": "RL Interp",
"id": null,
"trail_ids": 77,
"steward_id": "NA",
"address": "",
"parking": "",
"drinkwater": "",
"source": "TestOrganization",
"restrooms": "",
"kiosk": "",
"osm_tags": "" 
} 
},
{
 "type": "Feature",
"geometry": {
 "type": "Point",
"coordinates": [  -149.2719,  61.230681 ] 
},
"properties": {
 "name": "RL Interp 2",
"trail1": "RL Interp 2",
"id": null,
"trail_ids": 78,
"steward_id": "NA",
"address": "",
"parking": "",
"drinkwater": "",
"source": "TestOrganization",
"restrooms": "",
"kiosk": "",
"osm_tags": "" 
} 
},
{
 "type": "Feature",
"geometry": {
 "type": "Point",
"coordinates": [ -149.273382,   61.23265 ] 
},
"properties": {
 "name": "RL Interp 3",
"trail1": "RL Interp 3",
"id": null,
"trail_ids": 79,
"steward_id": "NA",
"address": "",
"parking": "",
"drinkwater": "",
"source": "TestOrganization",
"restrooms": "",
"kiosk": "",
"osm_tags": "" 
} 
},
{
 "type": "Feature",
"geometry": {
 "type": "Point",
"coordinates": [ -149.270553,  61.233007 ] 
},
"properties": {
 "name": "Rodak Nature Loop",
"trail1": "Rodak Nature Loop",
"id": null,
"trail_ids": 80,
"steward_id": "NA",
"address": "",
"parking": "",
"drinkwater": "",
"source": "TestOrganization",
"restrooms": "",
"kiosk": "",
"osm_tags": "" 
} 
},
{
 "type": "Feature",
"geometry": {
 "type": "Point",
"coordinates": [ -149.532959,  61.246937 ] 
},
"properties": {
 "name": "Rondevous Peak",
"trail1": "Rondevous Peak",
"id": null,
"trail_ids": 81,
"steward_id": "NA",
"address": "",
"parking": "",
"drinkwater": "",
"source": "TestOrganization",
"restrooms": "",
"kiosk": "",
"osm_tags": "" 
} 
},
{
 "type": "Feature",
"geometry": {
 "type": "Point",
"coordinates": [ -149.540182,  61.242926 ] 
},
"properties": {
 "name": "Rondevous Ridge",
"trail1": "Rondevous Ridge",
"id": null,
"trail_ids": 82,
"steward_id": "NA",
"address": "",
"parking": "",
"drinkwater": "",
"source": "TestOrganization",
"restrooms": "",
"kiosk": "",
"osm_tags": "" 
} 
},
{
 "type": "Feature",
"geometry": {
 "type": "Point",
"coordinates": [ -149.610975,  61.087588 ] 
},
"properties": {
 "name": "Ship Lake Pass",
"trail1": "Ship Lake Pass",
"id": null,
"trail_ids": 83,
"steward_id": "NA",
"address": "",
"parking": "",
"drinkwater": "",
"source": "TestOrganization",
"restrooms": "",
"kiosk": "",
"osm_tags": "" 
} 
},
{
 "type": "Feature",
"geometry": {
 "type": "Point",
"coordinates": [ -149.705728,  61.116244 ] 
},
"properties": {
 "name": "Silver Fern",
"trail1": "Silver Fern",
"id": null,
"trail_ids": 84,
"steward_id": "NA",
"address": "",
"parking": "",
"drinkwater": "",
"source": "TestOrganization",
"restrooms": "",
"kiosk": "",
"osm_tags": "" 
} 
},
{
 "type": "Feature",
"geometry": {
 "type": "Point",
"coordinates": [ -149.710628,  61.112117 ] 
},
"properties": {
 "name": "Snowmobile Entrance",
"trail1": "Snowmobile Entrance",
"id": null,
"trail_ids": 85,
"steward_id": "NA",
"address": "",
"parking": "",
"drinkwater": "",
"source": "TestOrganization",
"restrooms": "",
"kiosk": "",
"osm_tags": "" 
} 
},
{
 "type": "Feature",
"geometry": {
 "type": "Point",
"coordinates": [ -149.695924,  61.112235 ] 
},
"properties": {
 "name": "Snowmobile Exit",
"trail1": "Snowmobile Exit",
"id": null,
"trail_ids": 86,
"steward_id": "NA",
"address": "",
"parking": "",
"drinkwater": "",
"source": "TestOrganization",
"restrooms": "",
"kiosk": "",
"osm_tags": "" 
} 
},
{
 "type": "Feature",
"geometry": {
 "type": "Point",
"coordinates": [ -149.455977,  61.232545 ] 
},
"properties": {
 "name": "South Fork ER",
"trail1": "South Fork ER",
"id": null,
"trail_ids": 87,
"steward_id": "NA",
"address": "",
"parking": "",
"drinkwater": "",
"source": "TestOrganization",
"restrooms": "",
"kiosk": "",
"osm_tags": "" 
} 
},
{
 "type": "Feature",
"geometry": {
 "type": "Point",
"coordinates": [ -149.712937,  61.137648 ] 
},
"properties": {
 "name": "South Fork Rim",
"trail1": "South Fork Rim",
"id": null,
"trail_ids": 88,
"steward_id": "NA",
"address": "",
"parking": "",
"drinkwater": "",
"source": "TestOrganization",
"restrooms": "",
"kiosk": "",
"osm_tags": "" 
} 
},
{
 "type": "Feature",
"geometry": {
 "type": "Point",
"coordinates": [ -149.708546,  61.140959 ] 
},
"properties": {
 "name": "Spencer",
"trail1": "Spencer",
"id": null,
"trail_ids": 89,
"steward_id": "NA",
"address": "",
"parking": "",
"drinkwater": "",
"source": "TestOrganization",
"restrooms": "",
"kiosk": "",
"osm_tags": "" 
} 
},
{
 "type": "Feature",
"geometry": {
 "type": "Point",
"coordinates": [ -149.699447,  61.143967 ] 
},
"properties": {
 "name": "Spencer Loop",
"trail1": "Spencer Loop",
"id": null,
"trail_ids": 90,
"steward_id": "NA",
"address": "",
"parking": "",
"drinkwater": "",
"source": "TestOrganization",
"restrooms": "",
"kiosk": "",
"osm_tags": "" 
} 
},
{
 "type": "Feature",
"geometry": {
 "type": "Point",
"coordinates": [ -149.139579,   60.97007 ] 
},
"properties": {
 "name": "Spur 1",
"trail1": "Spur 1",
"id": null,
"trail_ids": 91,
"steward_id": "NA",
"address": "",
"parking": "",
"drinkwater": "",
"source": "TestOrganization",
"restrooms": "",
"kiosk": "",
"osm_tags": "" 
} 
},
{
 "type": "Feature",
"geometry": {
 "type": "Point",
"coordinates": [ -149.146898,  60.982286 ] 
},
"properties": {
 "name": "Spur 2",
"trail1": "Spur 2",
"id": null,
"trail_ids": 92,
"steward_id": "NA",
"address": "",
"parking": "",
"drinkwater": "",
"source": "TestOrganization",
"restrooms": "",
"kiosk": "",
"osm_tags": "" 
} 
},
{
 "type": "Feature",
"geometry": {
 "type": "Point",
"coordinates": [ -149.37045,  61.449082 ] 
},
"properties": {
 "name": "Thunderbird Falls",
"trail1": "Thunderbird Falls",
"id": null,
"trail_ids": 93,
"steward_id": "NA",
"address": "",
"parking": "",
"drinkwater": "",
"source": "TestOrganization",
"restrooms": "",
"kiosk": "",
"osm_tags": "" 
} 
},
{
 "type": "Feature",
"geometry": {
 "type": "Point",
"coordinates": [ -149.731018,  61.018792 ] 
},
"properties": {
 "name": "Track 3",
"trail1": "Track 3",
"id": null,
"trail_ids": 94,
"steward_id": "NA",
"address": "",
"parking": "",
"drinkwater": "",
"source": "TestOrganization",
"restrooms": "",
"kiosk": "",
"osm_tags": "" 
} 
},
{
 "type": "Feature",
"geometry": {
 "type": "Point",
"coordinates": [ -149.733184,  61.018255 ] 
},
"properties": {
 "name": "Track 7",
"trail1": "Track 7",
"id": null,
"trail_ids": 95,
"steward_id": "NA",
"address": "",
"parking": "",
"drinkwater": "",
"source": "TestOrganization",
"restrooms": "",
"kiosk": "",
"osm_tags": "" 
} 
},
{
 "type": "Feature",
"geometry": {
 "type": "Point",
"coordinates": [ -149.604403,  60.984871 ] 
},
"properties": {
 "name": "Turnagain Arm",
"trail1": "Turnagain Arm",
"id": null,
"trail_ids": 96,
"steward_id": "NA",
"address": "",
"parking": "",
"drinkwater": "",
"source": "TestOrganization",
"restrooms": "",
"kiosk": "",
"osm_tags": "" 
} 
},
{
 "type": "Feature",
"geometry": {
 "type": "Point",
"coordinates": [ -149.784675,  61.044991 ] 
},
"properties": {
 "name": "Turnagain Arm Interpretive",
"trail1": "Turnagain Arm Interpretive",
"id": null,
"trail_ids": 97,
"steward_id": "NA",
"address": "",
"parking": "",
"drinkwater": "",
"source": "TestOrganization",
"restrooms": "",
"kiosk": "",
"osm_tags": "" 
} 
},
{
 "type": "Feature",
"geometry": {
 "type": "Point",
"coordinates": [ -149.135165,  61.410408 ] 
},
"properties": {
 "name": "Twin Peaks",
"trail1": "Twin Peaks",
"id": null,
"trail_ids": 98,
"steward_id": "NA",
"address": "",
"parking": "",
"drinkwater": "",
"source": "TestOrganization",
"restrooms": "",
"kiosk": "",
"osm_tags": "" 
} 
},
{
 "type": "Feature",
"geometry": {
 "type": "Point",
"coordinates": [ -149.714476,  61.122064 ] 
},
"properties": {
 "name": "White Spruce",
"trail1": "White Spruce",
"id": null,
"trail_ids": 99,
"steward_id": "NA",
"address": "",
"parking": "",
"drinkwater": "",
"source": "TestOrganization",
"restrooms": "",
"kiosk": "",
"osm_tags": "" 
} 
},
{
 "type": "Feature",
"geometry": {
 "type": "Point",
"coordinates": [ -149.663447,  61.117455 ] 
},
"properties": {
 "name": "Williwaw Lakes",
"trail1": "Williwaw Lakes",
"id": null,
"trail_ids": 100,
"steward_id": "NA",
"address": "",
"parking": "",
"drinkwater": "",
"source": "TestOrganization",
"restrooms": "",
"kiosk": "",
"osm_tags": "" 
} 
},
{
 "type": "Feature",
"geometry": {
 "type": "Point",
"coordinates": [ -149.680206,  61.146846 ] 
},
"properties": {
 "name": "Wolverine Peak",
"trail1": "Wolverine Peak",
"id": null,
"trail_ids": 101,
"steward_id": "NA",
"address": "",
"parking": "",
"drinkwater": "",
"source": "TestOrganization",
"restrooms": "",
"kiosk": "",
"osm_tags": "" 
} 
},
{
 "type": "Feature",
"geometry": {
 "type": "Point",
"coordinates": [ -149.710569,  61.139035 ] 
},
"properties": {
 "name": "Wolverine Bowl",
"trail1": "Wolverine Bowl",
"id": null,
"trail_ids": 102,
"steward_id": "NA",
"address": "",
"parking": "",
"drinkwater": "",
"source": "TestOrganization",
"restrooms": "",
"kiosk": "",
"osm_tags": "" 
} 
},
{
 "type": "Feature",
"geometry": {
 "type": "Point",
"coordinates": [ -149.698381,  61.142875 ] 
},
"properties": {
 "name": "Wolverine Bowl Loop",
"trail1": "Wolverine Bowl Loop",
"id": null,
"trail_ids": 103,
"steward_id": "NA",
"address": "",
"parking": "",
"drinkwater": "",
"source": "TestOrganization",
"restrooms": "",
"kiosk": "",
"osm_tags": "" 
} 
},
{
 "type": "Feature",
"geometry": {
 "type": "Point",
"coordinates": [ -149.273455,  61.234001 ] 
},
"properties": {
 "name": "Yurt Classrom",
"trail1": "Yurt Classrom",
"id": null,
"trail_ids": 104,
"steward_id": "NA",
"address": "",
"parking": "",
"drinkwater": "",
"source": "TestOrganization",
"restrooms": "",
"kiosk": "",
"osm_tags": "" 
} 
},
{
 "type": "Feature",
"geometry": {
 "type": "Point",
"coordinates": [ -149.896916, 61.2048345 ] 
},
"properties": {
 "name": "Chester Creek Trail",
"trail1": "Chester Creek Trail",
"id": -1,
"trail_ids": 106,
"steward_id": "MOA Parks and Rec.",
"address": "",
"parking": "",
"drinkwater": "",
"source": "TestOrganization",
"restrooms": "",
"kiosk": "",
"osm_tags": "" 
} 
},
{
 "type": "Feature",
"geometry": {
 "type": "Point",
"coordinates": [ -149.921625, 61.2083781 ] 
},
"properties": {
 "name": "Chester Creek Trail",
"trail1": "Chester Creek Trail",
"id": -1,
"trail_ids": 111,
"steward_id": "MOA Parks and Rec.",
"address": "",
"parking": "",
"drinkwater": "",
"source": "TestOrganization",
"restrooms": "",
"kiosk": "",
"osm_tags": "" 
} 
},
{
 "type": "Feature",
"geometry": {
 "type": "Point",
"coordinates": [ -149.418477, 61.4320406 ] 
},
"properties": {
 "name": "Out H To Cutoff",
"trail1": "Out H To Cutoff",
"id": 7,
"trail_ids": 144,
"steward_id": "MOA Parks and Rec.",
"address": "",
"parking": "",
"drinkwater": "",
"source": "TestOrganization",
"restrooms": "",
"kiosk": "",
"osm_tags": "" 
} 
},
{
 "type": "Feature",
"geometry": {
 "type": "Point",
"coordinates": [ -149.417128, 61.4337414 ] 
},
"properties": {
 "name": "In Cutoff To H",
"trail1": "In Cutoff To H",
"id": 9,
"trail_ids": 145,
"steward_id": "MOA Parks and Rec.",
"address": "",
"parking": "",
"drinkwater": "",
"source": "TestOrganization",
"restrooms": "",
"kiosk": "",
"osm_tags": "" 
} 
},
{
 "type": "Feature",
"geometry": {
 "type": "Point",
"coordinates": [ -149.418685, 61.4318477 ] 
},
"properties": {
 "name": "Inbound",
"trail1": "Inbound",
"id": 11,
"trail_ids": 146,
"steward_id": "MOA Parks and Rec.",
"address": "",
"parking": "",
"drinkwater": "",
"source": "TestOrganization",
"restrooms": "",
"kiosk": "",
"osm_tags": "" 
} 
},
{
 "type": "Feature",
"geometry": {
 "type": "Point",
"coordinates": [ -149.41847, 61.4318228 ] 
},
"properties": {
 "name": "Out H To Cutoff",
"trail1": "Out H To Cutoff",
"id": 12,
"trail_ids": 147,
"steward_id": "MOA Parks and Rec.",
"address": "",
"parking": "",
"drinkwater": "",
"source": "TestOrganization",
"restrooms": "",
"kiosk": "",
"osm_tags": "" 
} 
},
{
 "type": "Feature",
"geometry": {
 "type": "Point",
"coordinates": [ -149.41847, 61.4318228 ] 
},
"properties": {
 "name": "Outbound",
"trail1": "Outbound",
"id": 13,
"trail_ids": 148,
"steward_id": "MOA Parks and Rec.",
"address": "",
"parking": "",
"drinkwater": "",
"source": "TestOrganization",
"restrooms": "",
"kiosk": "",
"osm_tags": "" 
} 
},
{
 "type": "Feature",
"geometry": {
 "type": "Point",
"coordinates": [ -149.402978, 61.4306733 ] 
},
"properties": {
 "name": "2.5 Km",
"trail1": "2.5 Km",
"id": 17,
"trail_ids": 151,
"steward_id": "MOA Parks and Rec.",
"address": "",
"parking": "",
"drinkwater": "",
"source": "TestOrganization",
"restrooms": "",
"kiosk": "",
"osm_tags": "" 
} 
},
{
 "type": "Feature",
"geometry": {
 "type": "Point",
"coordinates": [ -149.418812, 61.4318325 ] 
},
"properties": {
 "name": "Inbound",
"trail1": "Inbound",
"id": 22,
"trail_ids": 152,
"steward_id": "MOA Parks and Rec.",
"address": "",
"parking": "",
"drinkwater": "",
"source": "TestOrganization",
"restrooms": "",
"kiosk": "",
"osm_tags": "" 
} 
},
{
 "type": "Feature",
"geometry": {
 "type": "Point",
"coordinates": [ -149.418494, 61.4300092 ] 
},
"properties": {
 "name": "Outbound",
"trail1": "Outbound",
"id": 23,
"trail_ids": 153,
"steward_id": "MOA Parks and Rec.",
"address": "",
"parking": "",
"drinkwater": "",
"source": "TestOrganization",
"restrooms": "",
"kiosk": "",
"osm_tags": "" 
} 
},
{
 "type": "Feature",
"geometry": {
 "type": "Point",
"coordinates": [ -149.42004, 61.4297681 ] 
},
"properties": {
 "name": "Go Again",
"trail1": "Go Again",
"id": 27,
"trail_ids": 154,
"steward_id": "NA",
"address": "",
"parking": "",
"drinkwater": "",
"source": "TestOrganization",
"restrooms": "",
"kiosk": "",
"osm_tags": "" 
} 
},
{
 "type": "Feature",
"geometry": {
 "type": "Point",
"coordinates": [ -149.418706, 61.4295838 ] 
},
"properties": {
 "name": "Inbound",
"trail1": "Inbound",
"id": 30,
"trail_ids": 155,
"steward_id": "NA",
"address": "",
"parking": "",
"drinkwater": "",
"source": "TestOrganization",
"restrooms": "",
"kiosk": "",
"osm_tags": "" 
} 
},
{
 "type": "Feature",
"geometry": {
 "type": "Point",
"coordinates": [ -149.410923, 61.4294978 ] 
},
"properties": {
 "name": "2.5 Km",
"trail1": "2.5 Km",
"id": 32,
"trail_ids": 156,
"steward_id": "MOA Parks and Rec.",
"address": "",
"parking": "",
"drinkwater": "",
"source": "TestOrganization",
"restrooms": "",
"kiosk": "",
"osm_tags": "" 
} 
},
{
 "type": "Feature",
"geometry": {
 "type": "Point",
"coordinates": [ -149.412317, 61.4291583 ] 
},
"properties": {
 "name": "Mirror Lake Park",
"trail1": "Mirror Lake Park",
"id": 35,
"trail_ids": 157,
"steward_id": "MOA Parks and Rec.",
"address": "",
"parking": "",
"drinkwater": "",
"source": "TestOrganization",
"restrooms": "",
"kiosk": "",
"osm_tags": "" 
} 
},
{
 "type": "Feature",
"geometry": {
 "type": "Point",
"coordinates": [ -149.418214, 61.4290902 ] 
},
"properties": {
 "name": "Outbound",
"trail1": "Outbound",
"id": 39,
"trail_ids": 159,
"steward_id": "NA",
"address": "",
"parking": "",
"drinkwater": "",
"source": "TestOrganization",
"restrooms": "",
"kiosk": "",
"osm_tags": "" 
} 
},
{
 "type": "Feature",
"geometry": {
 "type": "Point",
"coordinates": [ -149.42327, 61.4293274 ] 
},
"properties": {
 "name": "N Connect",
"trail1": "N Connect",
"id": 40,
"trail_ids": 160,
"steward_id": "NA",
"address": "",
"parking": "",
"drinkwater": "",
"source": "TestOrganization",
"restrooms": "",
"kiosk": "",
"osm_tags": "" 
} 
},
{
 "type": "Feature",
"geometry": {
 "type": "Point",
"coordinates": [ -149.419991, 61.4289547 ] 
},
"properties": {
 "name": "Outbound",
"trail1": "Outbound",
"id": 42,
"trail_ids": 162,
"steward_id": "NA",
"address": "",
"parking": "",
"drinkwater": "",
"source": "TestOrganization",
"restrooms": "",
"kiosk": "",
"osm_tags": "" 
} 
},
{
 "type": "Feature",
"geometry": {
 "type": "Point",
"coordinates": [ -149.413119, 61.4284775 ] 
},
"properties": {
 "name": "Mirror Lake Park",
"trail1": "Mirror Lake Park",
"id": 43,
"trail_ids": 163,
"steward_id": "NA",
"address": "",
"parking": "",
"drinkwater": "",
"source": "TestOrganization",
"restrooms": "",
"kiosk": "",
"osm_tags": "" 
} 
},
{
 "type": "Feature",
"geometry": {
 "type": "Point",
"coordinates": [ -149.420813, 61.4281537 ] 
},
"properties": {
 "name": "School Track",
"trail1": "School Track",
"id": 44,
"trail_ids": 164,
"steward_id": "NA",
"address": "",
"parking": "",
"drinkwater": "",
"source": "TestOrganization",
"restrooms": "",
"kiosk": "",
"osm_tags": "" 
} 
},
{
 "type": "Feature",
"geometry": {
 "type": "Point",
"coordinates": [ -149.42327, 61.4293274 ] 
},
"properties": {
 "name": "School Track",
"trail1": "School Track",
"id": 45,
"trail_ids": 165,
"steward_id": "NA",
"address": "",
"parking": "",
"drinkwater": "",
"source": "TestOrganization",
"restrooms": "",
"kiosk": "",
"osm_tags": "" 
} 
},
{
 "type": "Feature",
"geometry": {
 "type": "Point",
"coordinates": [ -149.420813, 61.4281537 ] 
},
"properties": {
 "name": "S Connect",
"trail1": "S Connect",
"id": 46,
"trail_ids": 166,
"steward_id": "NA",
"address": "",
"parking": "",
"drinkwater": "",
"source": "TestOrganization",
"restrooms": "",
"kiosk": "",
"osm_tags": "" 
} 
},
{
 "type": "Feature",
"geometry": {
 "type": "Point",
"coordinates": [ -150.052766, 61.1578338 ] 
},
"properties": {
 "name": "Mize Loop",
"trail1": "Mize Loop",
"id": 2866,
"trail_ids": 176,
"steward_id": "MOA Parks and Rec.",
"address": "",
"parking": "",
"drinkwater": "",
"source": "TestOrganization",
"restrooms": "",
"kiosk": "",
"osm_tags": "" 
} 
},
{
 "type": "Feature",
"geometry": {
 "type": "Point",
"coordinates": [ -150.051699, 61.1561211 ] 
},
"properties": {
 "name": "Chalet Loop",
"trail1": "Chalet Loop",
"id": 2869,
"trail_ids": 177,
"steward_id": "MOA Parks and Rec.",
"address": "",
"parking": "",
"drinkwater": "",
"source": "TestOrganization",
"restrooms": "",
"kiosk": "",
"osm_tags": "" 
} 
},
{
 "type": "Feature",
"geometry": {
 "type": "Point",
"coordinates": [ -150.060266, 61.1567468 ] 
},
"properties": {
 "name": "Mize Loop",
"trail1": "Mize Loop",
"id": 2871,
"trail_ids": 178,
"steward_id": "MOA Parks and Rec.",
"address": "",
"parking": "",
"drinkwater": "",
"source": "TestOrganization",
"restrooms": "",
"kiosk": "",
"osm_tags": "" 
} 
},
{
 "type": "Feature",
"geometry": {
 "type": "Point",
"coordinates": [ -149.900617,  61.204464 ] 
},
"properties": {
 "name": "Sullivan Nature Trail",
"trail1": "Sullivan Nature Trail",
"id": 973,
"trail_ids": 179,
"steward_id": "MOA Parks and Rec.",
"address": "",
"parking": "",
"drinkwater": "",
"source": "TestOrganization",
"restrooms": "",
"kiosk": "",
"osm_tags": "" 
} 
},
{
 "type": "Feature",
"geometry": {
 "type": "Point",
"coordinates": [ -149.899994, 61.2045422 ] 
},
"properties": {
 "name": "Sullivan Nature Trail",
"trail1": "Sullivan Nature Trail",
"id": 976,
"trail_ids": 180,
"steward_id": "MOA Parks and Rec.",
"address": "",
"parking": "",
"drinkwater": "",
"source": "TestOrganization",
"restrooms": "",
"kiosk": "",
"osm_tags": "" 
} 
},
{
 "type": "Feature",
"geometry": {
 "type": "Point",
"coordinates": [ -149.824536,  61.204101 ] 
},
"properties": {
 "name": "Tikishla Park Trail",
"trail1": "Tikishla Park Trail",
"id": 981,
"trail_ids": 181,
"steward_id": "NA",
"address": "",
"parking": "",
"drinkwater": "",
"source": "TestOrganization",
"restrooms": "",
"kiosk": "",
"osm_tags": "" 
} 
},
{
 "type": "Feature",
"geometry": {
 "type": "Point",
"coordinates": [ -149.904521, 61.2048636 ] 
},
"properties": {
 "name": "Chester Creek Trail",
"trail1": "Chester Creek Trail",
"id": -1,
"trail_ids": 182,
"steward_id": "MOA Parks and Rec.",
"address": "",
"parking": "",
"drinkwater": "",
"source": "TestOrganization",
"restrooms": "",
"kiosk": "",
"osm_tags": "" 
} 
},
{
 "type": "Feature",
"geometry": {
 "type": "Point",
"coordinates": [ -149.885848, 61.2032571 ] 
},
"properties": {
 "name": "Chester Creek Trail",
"trail1": "Chester Creek Trail",
"id": -1,
"trail_ids": 183,
"steward_id": "MOA Parks and Rec.",
"address": "",
"parking": "",
"drinkwater": "",
"source": "TestOrganization",
"restrooms": "",
"kiosk": "",
"osm_tags": "" 
} 
},
{
 "type": "Feature",
"geometry": {
 "type": "Point",
"coordinates": [ -149.546521, 61.3751593 ] 
},
"properties": {
 "name": "Bridge Loop",
"trail1": "Bridge Loop",
"id": 96,
"trail_ids": 184,
"steward_id": "MOA Parks and Rec.",
"address": "",
"parking": "",
"drinkwater": "",
"source": "TestOrganization",
"restrooms": "",
"kiosk": "",
"osm_tags": "" 
} 
},
{
 "type": "Feature",
"geometry": {
 "type": "Point",
"coordinates": [ -149.533702, 61.3746779 ] 
},
"properties": {
 "name": "Christy Loop",
"trail1": "Christy Loop",
"id": 99,
"trail_ids": 185,
"steward_id": "NA",
"address": "",
"parking": "",
"drinkwater": "",
"source": "TestOrganization",
"restrooms": "",
"kiosk": "",
"osm_tags": "" 
} 
},
{
 "type": "Feature",
"geometry": {
 "type": "Point",
"coordinates": [ -149.550557, 61.3743308 ] 
},
"properties": {
 "name": "Bridge Loop",
"trail1": "Bridge Loop",
"id": 101,
"trail_ids": 186,
"steward_id": "MOA Parks and Rec.",
"address": "",
"parking": "",
"drinkwater": "",
"source": "TestOrganization",
"restrooms": "",
"kiosk": "",
"osm_tags": "" 
} 
},
{
 "type": "Feature",
"geometry": {
 "type": "Point",
"coordinates": [ -149.54639,  61.376391 ] 
},
"properties": {
 "name": "Bridge Loop",
"trail1": "Bridge Loop",
"id": 105,
"trail_ids": 187,
"steward_id": "MOA Parks and Rec.",
"address": "",
"parking": "",
"drinkwater": "",
"source": "TestOrganization",
"restrooms": "",
"kiosk": "",
"osm_tags": "" 
} 
},
{
 "type": "Feature",
"geometry": {
 "type": "Point",
"coordinates": [ -149.934517, 61.1868168 ] 
},
"properties": {
 "name": "Fish Creek",
"trail1": "Fish Creek",
"id": 1569,
"trail_ids": 188,
"steward_id": "MOA STREET_MAINTENANCE",
"address": "",
"parking": "",
"drinkwater": "",
"source": "TestOrganization",
"restrooms": "",
"kiosk": "",
"osm_tags": "" 
} 
},
{
 "type": "Feature",
"geometry": {
 "type": "Point",
"coordinates": [ -149.934517, 61.1868168 ] 
},
"properties": {
 "name": "Fish Creek",
"trail1": "Fish Creek",
"id": 1570,
"trail_ids": 189,
"steward_id": "MOA STREET_MAINTENANCE",
"address": "",
"parking": "",
"drinkwater": "",
"source": "TestOrganization",
"restrooms": "",
"kiosk": "",
"osm_tags": "" 
} 
},
{
 "type": "Feature",
"geometry": {
 "type": "Point",
"coordinates": [ -149.79578, 61.1865806 ] 
},
"properties": {
 "name": "Tour Of Anchorage",
"trail1": "Tour Of Anchorage",
"id": 1572,
"trail_ids": 190,
"steward_id": "MOA Parks and Rec.",
"address": "",
"parking": "",
"drinkwater": "",
"source": "TestOrganization",
"restrooms": "",
"kiosk": "",
"osm_tags": "" 
} 
},
{
 "type": "Feature",
"geometry": {
 "type": "Point",
"coordinates": [ -149.796981, 61.1857609 ] 
},
"properties": {
 "name": "Tour Of Anchorage",
"trail1": "Tour Of Anchorage",
"id": 1587,
"trail_ids": 191,
"steward_id": "MOA Parks and Rec.",
"address": "",
"parking": "",
"drinkwater": "",
"source": "TestOrganization",
"restrooms": "",
"kiosk": "",
"osm_tags": "" 
} 
},
{
 "type": "Feature",
"geometry": {
 "type": "Point",
"coordinates": [ -149.798894,  61.186062 ] 
},
"properties": {
 "name": "Tour Of Anchorage",
"trail1": "Tour Of Anchorage",
"id": 1588,
"trail_ids": 192,
"steward_id": "MOA Parks and Rec.",
"address": "",
"parking": "",
"drinkwater": "",
"source": "TestOrganization",
"restrooms": "",
"kiosk": "",
"osm_tags": "" 
} 
},
{
 "type": "Feature",
"geometry": {
 "type": "Point",
"coordinates": [ -149.864352, 61.1734486 ] 
},
"properties": {
 "name": "Campbell Creek Trail",
"trail1": "Campbell Creek Trail",
"id": -6,
"trail_ids": 193,
"steward_id": "MOA Parks and Rec.",
"address": "",
"parking": "",
"drinkwater": "",
"source": "TestOrganization",
"restrooms": "",
"kiosk": "",
"osm_tags": "" 
} 
},
{
 "type": "Feature",
"geometry": {
 "type": "Point",
"coordinates": [ -149.547336, 61.3979546 ] 
},
"properties": {
 "name": "HILL",
"trail1": "HILL",
"id": 0,
"trail_ids": 199,
"steward_id": "NA",
"address": "",
"parking": "",
"drinkwater": "",
"source": "TestOrganization",
"restrooms": "",
"kiosk": "",
"osm_tags": "" 
} 
},
{
 "type": "Feature",
"geometry": {
 "type": "Point",
"coordinates": [ -149.544466, 61.3954003 ] 
},
"properties": {
 "name": "HILL",
"trail1": "HILL",
"id": 0,
"trail_ids": 200,
"steward_id": "NA",
"address": "",
"parking": "",
"drinkwater": "",
"source": "TestOrganization",
"restrooms": "",
"kiosk": "",
"osm_tags": "" 
} 
},
{
 "type": "Feature",
"geometry": {
 "type": "Point",
"coordinates": [ -149.823278, 61.2007935 ] 
},
"properties": {
 "name": "Tikishla Park Trail",
"trail1": "Tikishla Park Trail",
"id": 1115,
"trail_ids": 214,
"steward_id": "NA",
"address": "",
"parking": "",
"drinkwater": "",
"source": "TestOrganization",
"restrooms": "",
"kiosk": "",
"osm_tags": "" 
} 
},
{
 "type": "Feature",
"geometry": {
 "type": "Point",
"coordinates": [ -149.790372, 61.1547386 ] 
},
"properties": {
 "name": "Coyote Trail",
"trail1": "Coyote Trail",
"id": 2959,
"trail_ids": 222,
"steward_id": "US BLM",
"address": "",
"parking": "",
"drinkwater": "",
"source": "TestOrganization",
"restrooms": "",
"kiosk": "",
"osm_tags": "" 
} 
},
{
 "type": "Feature",
"geometry": {
 "type": "Point",
"coordinates": [ -149.736577, 61.1548349 ] 
},
"properties": {
 "name": "Tank Trail",
"trail1": "Tank Trail",
"id": 2962,
"trail_ids": 223,
"steward_id": "MOA Parks and Rec.",
"address": "",
"parking": "",
"drinkwater": "",
"source": "TestOrganization",
"restrooms": "",
"kiosk": "",
"osm_tags": "" 
} 
},
{
 "type": "Feature",
"geometry": {
 "type": "Point",
"coordinates": [ -149.824013, 61.2023496 ] 
},
"properties": {
 "name": "Tikishla Park Trail",
"trail1": "Tikishla Park Trail",
"id": 1082,
"trail_ids": 224,
"steward_id": "MOA Parks and Rec.",
"address": "",
"parking": "",
"drinkwater": "",
"source": "TestOrganization",
"restrooms": "",
"kiosk": "",
"osm_tags": "" 
} 
},
{
 "type": "Feature",
"geometry": {
 "type": "Point",
"coordinates": [ -149.824874, 61.2023275 ] 
},
"properties": {
 "name": "Tikishla Park Trail",
"trail1": "Tikishla Park Trail",
"id": 1083,
"trail_ids": 225,
"steward_id": "NA",
"address": "",
"parking": "",
"drinkwater": "",
"source": "TestOrganization",
"restrooms": "",
"kiosk": "",
"osm_tags": "" 
} 
},
{
 "type": "Feature",
"geometry": {
 "type": "Point",
"coordinates": [ -149.825734, 61.2022882 ] 
},
"properties": {
 "name": "Tikishla Park Trail",
"trail1": "Tikishla Park Trail",
"id": 1085,
"trail_ids": 226,
"steward_id": "NA",
"address": "",
"parking": "",
"drinkwater": "",
"source": "TestOrganization",
"restrooms": "",
"kiosk": "",
"osm_tags": "" 
} 
},
{
 "type": "Feature",
"geometry": {
 "type": "Point",
"coordinates": [ -149.875708, 61.2022904 ] 
},
"properties": {
 "name": "Chester Creek Trail",
"trail1": "Chester Creek Trail",
"id": -1,
"trail_ids": 227,
"steward_id": "MOA Parks and Rec.",
"address": "",
"parking": "",
"drinkwater": "",
"source": "TestOrganization",
"restrooms": "",
"kiosk": "",
"osm_tags": "" 
} 
},
{
 "type": "Feature",
"geometry": {
 "type": "Point",
"coordinates": [ -149.875689, 61.2022904 ] 
},
"properties": {
 "name": "Chester Creek Trail",
"trail1": "Chester Creek Trail",
"id": -1,
"trail_ids": 228,
"steward_id": "MOA Parks and Rec.",
"address": "",
"parking": "",
"drinkwater": "",
"source": "TestOrganization",
"restrooms": "",
"kiosk": "",
"osm_tags": "" 
} 
},
{
 "type": "Feature",
"geometry": {
 "type": "Point",
"coordinates": [ -149.721161,  61.225181 ] 
},
"properties": {
 "name": "Centennial",
"trail1": "Centennial",
"id": 439,
"trail_ids": 229,
"steward_id": "MOA Parks and Rec.",
"address": "",
"parking": "",
"drinkwater": "",
"source": "TestOrganization",
"restrooms": "",
"kiosk": "",
"osm_tags": "" 
} 
},
{
 "type": "Feature",
"geometry": {
 "type": "Point",
"coordinates": [ -149.725022, 61.2242322 ] 
},
"properties": {
 "name": "Centennial",
"trail1": "Centennial",
"id": 440,
"trail_ids": 230,
"steward_id": "MOA Parks and Rec.",
"address": "",
"parking": "",
"drinkwater": "",
"source": "TestOrganization",
"restrooms": "",
"kiosk": "",
"osm_tags": "" 
} 
},
{
 "type": "Feature",
"geometry": {
 "type": "Point",
"coordinates": [ -149.730319, 61.2242319 ] 
},
"properties": {
 "name": "Centennial",
"trail1": "Centennial",
"id": 441,
"trail_ids": 231,
"steward_id": "MOA Parks and Rec.",
"address": "",
"parking": "",
"drinkwater": "",
"source": "TestOrganization",
"restrooms": "",
"kiosk": "",
"osm_tags": "" 
} 
},
{
 "type": "Feature",
"geometry": {
 "type": "Point",
"coordinates": [ -149.886294, 61.2234091 ] 
},
"properties": {
 "name": "Ship Creek",
"trail1": "Ship Creek",
"id": 451,
"trail_ids": 232,
"steward_id": "NA",
"address": "",
"parking": "",
"drinkwater": "",
"source": "TestOrganization",
"restrooms": "",
"kiosk": "",
"osm_tags": "" 
} 
},
{
 "type": "Feature",
"geometry": {
 "type": "Point",
"coordinates": [  -149.6946,  61.212616 ] 
},
"properties": {
 "name": "Tank Trail",
"trail1": "Tank Trail",
"id": 644,
"trail_ids": 233,
"steward_id": "US Army",
"address": "",
"parking": "",
"drinkwater": "",
"source": "TestOrganization",
"restrooms": "",
"kiosk": "",
"osm_tags": "" 
} 
},
{
 "type": "Feature",
"geometry": {
 "type": "Point",
"coordinates": [ -149.814548,  61.195256 ] 
},
"properties": {
 "name": "UAA Ski",
"trail1": "UAA Ski",
"id": 1272,
"trail_ids": 234,
"steward_id": "NA",
"address": "",
"parking": "",
"drinkwater": "",
"source": "TestOrganization",
"restrooms": "",
"kiosk": "",
"osm_tags": "" 
} 
},
{
 "type": "Feature",
"geometry": {
 "type": "Point",
"coordinates": [ -149.694956, 61.2063522 ] 
},
"properties": {
 "name": "Tank Trail",
"trail1": "Tank Trail",
"id": 858,
"trail_ids": 235,
"steward_id": "US Army",
"address": "",
"parking": "",
"drinkwater": "",
"source": "TestOrganization",
"restrooms": "",
"kiosk": "",
"osm_tags": "" 
} 
},
{
 "type": "Feature",
"geometry": {
 "type": "Point",
"coordinates": [ -149.979643, 61.1979887 ] 
},
"properties": {
 "name": "Coastal Trail",
"trail1": "Coastal Trail",
"id": -2,
"trail_ids": 236,
"steward_id": "MOA Parks and Rec.",
"address": "",
"parking": "",
"drinkwater": "",
"source": "TestOrganization",
"restrooms": "",
"kiosk": "",
"osm_tags": "" 
} 
},
{
 "type": "Feature",
"geometry": {
 "type": "Point",
"coordinates": [ -150.033951, 61.1776019 ] 
},
"properties": {
 "name": "Coastal Trail",
"trail1": "Coastal Trail",
"id": 1923,
"trail_ids": 237,
"steward_id": "MOA Parks and Rec.",
"address": "",
"parking": "",
"drinkwater": "",
"source": "TestOrganization",
"restrooms": "",
"kiosk": "",
"osm_tags": "" 
} 
},
{
 "type": "Feature",
"geometry": {
 "type": "Point",
"coordinates": [ -149.82388, 61.1774809 ] 
},
"properties": {
 "name": "Campbell Creek Trail",
"trail1": "Campbell Creek Trail",
"id": -6,
"trail_ids": 238,
"steward_id": "MOA Parks and Rec.",
"address": "",
"parking": "",
"drinkwater": "",
"source": "TestOrganization",
"restrooms": "",
"kiosk": "",
"osm_tags": "" 
} 
},
{
 "type": "Feature",
"geometry": {
 "type": "Point",
"coordinates": [ -149.728265, 61.2317521 ] 
},
"properties": {
 "name": "Bartlett",
"trail1": "Bartlett",
"id": 334,
"trail_ids": 239,
"steward_id": "NA",
"address": "",
"parking": "",
"drinkwater": "",
"source": "TestOrganization",
"restrooms": "",
"kiosk": "",
"osm_tags": "" 
} 
},
{
 "type": "Feature",
"geometry": {
 "type": "Point",
"coordinates": [ -149.780064,  61.162125 ] 
},
"properties": {
 "name": "Inner Loop Trail",
"trail1": "Inner Loop Trail",
"id": 2571,
"trail_ids": 240,
"steward_id": "US BLM",
"address": "",
"parking": "",
"drinkwater": "",
"source": "TestOrganization",
"restrooms": "",
"kiosk": "",
"osm_tags": "" 
} 
},
{
 "type": "Feature",
"geometry": {
 "type": "Point",
"coordinates": [ -149.780064,  61.162125 ] 
},
"properties": {
 "name": "14 Mile Loop",
"trail1": "14 Mile Loop",
"id": 2572,
"trail_ids": 241,
"steward_id": "US BLM",
"address": "",
"parking": "",
"drinkwater": "",
"source": "TestOrganization",
"restrooms": "",
"kiosk": "",
"osm_tags": "" 
} 
},
{
 "type": "Feature",
"geometry": {
 "type": "Point",
"coordinates": [ -149.782339, 61.1619723 ] 
},
"properties": {
 "name": "Homecoming/poleline",
"trail1": "Homecoming/poleline",
"id": 2573,
"trail_ids": 242,
"steward_id": "US BLM",
"address": "",
"parking": "",
"drinkwater": "",
"source": "TestOrganization",
"restrooms": "",
"kiosk": "",
"osm_tags": "" 
} 
},
{
 "type": "Feature",
"geometry": {
 "type": "Point",
"coordinates": [ -149.788951,  61.166396 ] 
},
"properties": {
 "name": "Homecoming/poleline",
"trail1": "Homecoming/poleline",
"id": 2279,
"trail_ids": 243,
"steward_id": "NA",
"address": "",
"parking": "",
"drinkwater": "",
"source": "TestOrganization",
"restrooms": "",
"kiosk": "",
"osm_tags": "" 
} 
},
{
 "type": "Feature",
"geometry": {
 "type": "Point",
"coordinates": [ -149.789278, 61.1663962 ] 
},
"properties": {
 "name": "Homecoming/poleline",
"trail1": "Homecoming/poleline",
"id": 2280,
"trail_ids": 244,
"steward_id": "NA",
"address": "",
"parking": "",
"drinkwater": "",
"source": "TestOrganization",
"restrooms": "",
"kiosk": "",
"osm_tags": "" 
} 
},
{
 "type": "Feature",
"geometry": {
 "type": "Point",
"coordinates": [ -149.79757, 61.1663883 ] 
},
"properties": {
 "name": "Homecoming/poleline",
"trail1": "Homecoming/poleline",
"id": 2281,
"trail_ids": 245,
"steward_id": "NA",
"address": "",
"parking": "",
"drinkwater": "",
"source": "TestOrganization",
"restrooms": "",
"kiosk": "",
"osm_tags": "" 
} 
},
{
 "type": "Feature",
"geometry": {
 "type": "Point",
"coordinates": [ -149.795162, 61.1663731 ] 
},
"properties": {
 "name": "Homecoming/poleline",
"trail1": "Homecoming/poleline",
"id": 2283,
"trail_ids": 246,
"steward_id": "NA",
"address": "",
"parking": "",
"drinkwater": "",
"source": "TestOrganization",
"restrooms": "",
"kiosk": "",
"osm_tags": "" 
} 
},
{
 "type": "Feature",
"geometry": {
 "type": "Point",
"coordinates": [ -149.796049, 61.1663717 ] 
},
"properties": {
 "name": "Homecoming/poleline",
"trail1": "Homecoming/poleline",
"id": 2284,
"trail_ids": 247,
"steward_id": "NA",
"address": "",
"parking": "",
"drinkwater": "",
"source": "TestOrganization",
"restrooms": "",
"kiosk": "",
"osm_tags": "" 
} 
},
{
 "type": "Feature",
"geometry": {
 "type": "Point",
"coordinates": [ -149.803137, 61.1663815 ] 
},
"properties": {
 "name": "Rondy Cut Off Trail",
"trail1": "Rondy Cut Off Trail",
"id": 2285,
"trail_ids": 248,
"steward_id": "NA",
"address": "",
"parking": "",
"drinkwater": "",
"source": "TestOrganization",
"restrooms": "",
"kiosk": "",
"osm_tags": "" 
} 
},
{
 "type": "Feature",
"geometry": {
 "type": "Point",
"coordinates": [ -149.796049, 61.1663717 ] 
},
"properties": {
 "name": "Homecoming/poleline",
"trail1": "Homecoming/poleline",
"id": 2286,
"trail_ids": 249,
"steward_id": "NA",
"address": "",
"parking": "",
"drinkwater": "",
"source": "TestOrganization",
"restrooms": "",
"kiosk": "",
"osm_tags": "" 
} 
},
{
 "type": "Feature",
"geometry": {
 "type": "Point",
"coordinates": [ -149.79757, 61.1663883 ] 
},
"properties": {
 "name": "Homecoming/poleline",
"trail1": "Homecoming/poleline",
"id": 2287,
"trail_ids": 250,
"steward_id": "NA",
"address": "",
"parking": "",
"drinkwater": "",
"source": "TestOrganization",
"restrooms": "",
"kiosk": "",
"osm_tags": "" 
} 
},
{
 "type": "Feature",
"geometry": {
 "type": "Point",
"coordinates": [ -149.719273, 61.2247442 ] 
},
"properties": {
 "name": "Centennial",
"trail1": "Centennial",
"id": 412,
"trail_ids": 251,
"steward_id": "MOA Parks and Rec.",
"address": "",
"parking": "",
"drinkwater": "",
"source": "TestOrganization",
"restrooms": "",
"kiosk": "",
"osm_tags": "" 
} 
},
{
 "type": "Feature",
"geometry": {
 "type": "Point",
"coordinates": [ -149.720022, 61.2246794 ] 
},
"properties": {
 "name": "Centennial",
"trail1": "Centennial",
"id": 414,
"trail_ids": 252,
"steward_id": "MOA Parks and Rec.",
"address": "",
"parking": "",
"drinkwater": "",
"source": "TestOrganization",
"restrooms": "",
"kiosk": "",
"osm_tags": "" 
} 
},
{
 "type": "Feature",
"geometry": {
 "type": "Point",
"coordinates": [ -149.725534, 61.2249581 ] 
},
"properties": {
 "name": "Centennial",
"trail1": "Centennial",
"id": 416,
"trail_ids": 253,
"steward_id": "MOA Parks and Rec.",
"address": "",
"parking": "",
"drinkwater": "",
"source": "TestOrganization",
"restrooms": "",
"kiosk": "",
"osm_tags": "" 
} 
},
{
 "type": "Feature",
"geometry": {
 "type": "Point",
"coordinates": [ -149.727189, 61.2245696 ] 
},
"properties": {
 "name": "Centennial",
"trail1": "Centennial",
"id": 417,
"trail_ids": 254,
"steward_id": "MOA Parks and Rec.",
"address": "",
"parking": "",
"drinkwater": "",
"source": "TestOrganization",
"restrooms": "",
"kiosk": "",
"osm_tags": "" 
} 
},
{
 "type": "Feature",
"geometry": {
 "type": "Point",
"coordinates": [ -149.800995, 61.1479755 ] 
},
"properties": {
 "name": "Abbott Loop Trail",
"trail1": "Abbott Loop Trail",
"id": 3274,
"trail_ids": 255,
"steward_id": "MOA Parks and Rec.",
"address": "",
"parking": "",
"drinkwater": "",
"source": "TestOrganization",
"restrooms": "",
"kiosk": "",
"osm_tags": "" 
} 
},
{
 "type": "Feature",
"geometry": {
 "type": "Point",
"coordinates": [ -149.886641, 61.1480495 ] 
},
"properties": {
 "name": "Campbell Creek Trail",
"trail1": "Campbell Creek Trail",
"id": -6,
"trail_ids": 256,
"steward_id": "NA",
"address": "",
"parking": "",
"drinkwater": "",
"source": "TestOrganization",
"restrooms": "",
"kiosk": "",
"osm_tags": "" 
} 
},
{
 "type": "Feature",
"geometry": {
 "type": "Point",
"coordinates": [ -149.886667, 61.1480488 ] 
},
"properties": {
 "name": "Campbell Creek Trail",
"trail1": "Campbell Creek Trail",
"id": -6,
"trail_ids": 257,
"steward_id": "MOA Parks and Rec.",
"address": "",
"parking": "",
"drinkwater": "",
"source": "TestOrganization",
"restrooms": "",
"kiosk": "",
"osm_tags": "" 
} 
},
{
 "type": "Feature",
"geometry": {
 "type": "Point",
"coordinates": [  -149.8848, 61.1485882 ] 
},
"properties": {
 "name": "Campbell Creek Trail",
"trail1": "Campbell Creek Trail",
"id": -6,
"trail_ids": 258,
"steward_id": "MOA Parks and Rec.",
"address": "",
"parking": "",
"drinkwater": "",
"source": "TestOrganization",
"restrooms": "",
"kiosk": "",
"osm_tags": "" 
} 
},
{
 "type": "Feature",
"geometry": {
 "type": "Point",
"coordinates": [ -149.886177, 61.1480334 ] 
},
"properties": {
 "name": "Campbell Creek Trail",
"trail1": "Campbell Creek Trail",
"id": -6,
"trail_ids": 259,
"steward_id": "MOA Parks and Rec.",
"address": "",
"parking": "",
"drinkwater": "",
"source": "TestOrganization",
"restrooms": "",
"kiosk": "",
"osm_tags": "" 
} 
},
{
 "type": "Feature",
"geometry": {
 "type": "Point",
"coordinates": [ -149.804016, 61.1479448 ] 
},
"properties": {
 "name": "Abbott Loop Trail",
"trail1": "Abbott Loop Trail",
"id": 3280,
"trail_ids": 260,
"steward_id": "MOA Parks and Rec.",
"address": "",
"parking": "",
"drinkwater": "",
"source": "TestOrganization",
"restrooms": "",
"kiosk": "",
"osm_tags": "" 
} 
},
{
 "type": "Feature",
"geometry": {
 "type": "Point",
"coordinates": [ -150.040897, 61.1479784 ] 
},
"properties": {
 "name": "Ice Box",
"trail1": "Ice Box",
"id": 3282,
"trail_ids": 261,
"steward_id": "MOA Parks and Rec.",
"address": "",
"parking": "",
"drinkwater": "",
"source": "TestOrganization",
"restrooms": "",
"kiosk": "",
"osm_tags": "" 
} 
},
{
 "type": "Feature",
"geometry": {
 "type": "Point",
"coordinates": [ -149.542476, 61.3735055 ] 
},
"properties": {
 "name": "Corral Loop",
"trail1": "Corral Loop",
"id": 112,
"trail_ids": 262,
"steward_id": "MOA Parks and Rec.",
"address": "",
"parking": "",
"drinkwater": "",
"source": "TestOrganization",
"restrooms": "",
"kiosk": "",
"osm_tags": "" 
} 
},
{
 "type": "Feature",
"geometry": {
 "type": "Point",
"coordinates": [ -149.546633, 61.3742293 ] 
},
"properties": {
 "name": "Corral Loop",
"trail1": "Corral Loop",
"id": 115,
"trail_ids": 263,
"steward_id": "MOA Parks and Rec.",
"address": "",
"parking": "",
"drinkwater": "",
"source": "TestOrganization",
"restrooms": "",
"kiosk": "",
"osm_tags": "" 
} 
},
{
 "type": "Feature",
"geometry": {
 "type": "Point",
"coordinates": [ -149.545066, 61.3733216 ] 
},
"properties": {
 "name": "Corral Loop",
"trail1": "Corral Loop",
"id": 119,
"trail_ids": 264,
"steward_id": "MOA Parks and Rec.",
"address": "",
"parking": "",
"drinkwater": "",
"source": "TestOrganization",
"restrooms": "",
"kiosk": "",
"osm_tags": "" 
} 
},
{
 "type": "Feature",
"geometry": {
 "type": "Point",
"coordinates": [ -149.544898, 61.3732049 ] 
},
"properties": {
 "name": "Corral Loop",
"trail1": "Corral Loop",
"id": 121,
"trail_ids": 265,
"steward_id": "MOA Parks and Rec.",
"address": "",
"parking": "",
"drinkwater": "",
"source": "TestOrganization",
"restrooms": "",
"kiosk": "",
"osm_tags": "" 
} 
},
{
 "type": "Feature",
"geometry": {
 "type": "Point",
"coordinates": [ -149.534352, 61.3745147 ] 
},
"properties": {
 "name": "Christy Loop",
"trail1": "Christy Loop",
"id": 140,
"trail_ids": 266,
"steward_id": "NA",
"address": "",
"parking": "",
"drinkwater": "",
"source": "TestOrganization",
"restrooms": "",
"kiosk": "",
"osm_tags": "" 
} 
},
{
 "type": "Feature",
"geometry": {
 "type": "Point",
"coordinates": [ -149.535885, 61.3722535 ] 
},
"properties": {
 "name": "Christy Loop",
"trail1": "Christy Loop",
"id": 144,
"trail_ids": 267,
"steward_id": "NA",
"address": "",
"parking": "",
"drinkwater": "",
"source": "TestOrganization",
"restrooms": "",
"kiosk": "",
"osm_tags": "" 
} 
},
{
 "type": "Feature",
"geometry": {
 "type": "Point",
"coordinates": [ -149.762234,  61.209594 ] 
},
"properties": {
 "name": "Beaver Pl. Trail",
"trail1": "Beaver Pl. Trail",
"id": 759,
"trail_ids": 269,
"steward_id": "MOA STREET_MAINTENANCE",
"address": "",
"parking": "",
"drinkwater": "",
"source": "TestOrganization",
"restrooms": "",
"kiosk": "",
"osm_tags": "" 
} 
},
{
 "type": "Feature",
"geometry": {
 "type": "Point",
"coordinates": [ -149.798906, 61.1986709 ] 
},
"properties": {
 "name": "Russian Jack Spur",
"trail1": "Russian Jack Spur",
"id": 1173,
"trail_ids": 270,
"steward_id": "NA",
"address": "",
"parking": "",
"drinkwater": "",
"source": "TestOrganization",
"restrooms": "",
"kiosk": "",
"osm_tags": "" 
} 
},
{
 "type": "Feature",
"geometry": {
 "type": "Point",
"coordinates": [ -149.700921, 61.2279595 ] 
},
"properties": {
 "name": "Tank Trail",
"trail1": "Tank Trail",
"id": 361,
"trail_ids": 271,
"steward_id": "US Army",
"address": "",
"parking": "",
"drinkwater": "",
"source": "TestOrganization",
"restrooms": "",
"kiosk": "",
"osm_tags": "" 
} 
},
{
 "type": "Feature",
"geometry": {
 "type": "Point",
"coordinates": [ -149.717892, 61.1389059 ] 
},
"properties": {
 "name": "Hornet's Nest",
"trail1": "Hornet's Nest",
"id": 0,
"trail_ids": 272,
"steward_id": "MOA Parks & Rec",
"address": "",
"parking": "",
"drinkwater": "",
"source": "TestOrganization",
"restrooms": "",
"kiosk": "",
"osm_tags": "" 
} 
},
{
 "type": "Feature",
"geometry": {
 "type": "Point",
"coordinates": [ -149.728165, 61.1387453 ] 
},
"properties": {
 "name": "Janice's Jive",
"trail1": "Janice's Jive",
"id": 0,
"trail_ids": 273,
"steward_id": "MOA Parks & Rec",
"address": "",
"parking": "",
"drinkwater": "",
"source": "TestOrganization",
"restrooms": "",
"kiosk": "",
"osm_tags": "" 
} 
},
{
 "type": "Feature",
"geometry": {
 "type": "Point",
"coordinates": [ -149.758834, 61.1923107 ] 
},
"properties": {
 "name": "Baxter Bog",
"trail1": "Baxter Bog",
"id": 1401,
"trail_ids": 278,
"steward_id": "NA",
"address": "",
"parking": "",
"drinkwater": "",
"source": "TestOrganization",
"restrooms": "",
"kiosk": "",
"osm_tags": "" 
} 
},
{
 "type": "Feature",
"geometry": {
 "type": "Point",
"coordinates": [ -149.779084, 61.2266628 ] 
},
"properties": {
 "name": "Glenn Hwy Trail",
"trail1": "Glenn Hwy Trail",
"id": -5,
"trail_ids": 280,
"steward_id": "NA",
"address": "",
"parking": "",
"drinkwater": "",
"source": "TestOrganization",
"restrooms": "",
"kiosk": "",
"osm_tags": "" 
} 
},
{
 "type": "Feature",
"geometry": {
 "type": "Point",
"coordinates": [ -149.718878, 61.2265023 ] 
},
"properties": {
 "name": "Centennial",
"trail1": "Centennial",
"id": 377,
"trail_ids": 281,
"steward_id": "MOA Parks and Rec.",
"address": "",
"parking": "",
"drinkwater": "",
"source": "TestOrganization",
"restrooms": "",
"kiosk": "",
"osm_tags": "" 
} 
},
{
 "type": "Feature",
"geometry": {
 "type": "Point",
"coordinates": [ -149.779419, 61.2265525 ] 
},
"properties": {
 "name": "Glenn Hwy Trail",
"trail1": "Glenn Hwy Trail",
"id": -5,
"trail_ids": 282,
"steward_id": "NA",
"address": "",
"parking": "",
"drinkwater": "",
"source": "TestOrganization",
"restrooms": "",
"kiosk": "",
"osm_tags": "" 
} 
},
{
 "type": "Feature",
"geometry": {
 "type": "Point",
"coordinates": [ -149.72558, 61.2266906 ] 
},
"properties": {
 "name": "Centennial",
"trail1": "Centennial",
"id": 379,
"trail_ids": 283,
"steward_id": "MOA Parks and Rec.",
"address": "",
"parking": "",
"drinkwater": "",
"source": "TestOrganization",
"restrooms": "",
"kiosk": "",
"osm_tags": "" 
} 
},
{
 "type": "Feature",
"geometry": {
 "type": "Point",
"coordinates": [ -149.726063, 61.2264153 ] 
},
"properties": {
 "name": "Centennial",
"trail1": "Centennial",
"id": 383,
"trail_ids": 285,
"steward_id": "MOA Parks and Rec.",
"address": "",
"parking": "",
"drinkwater": "",
"source": "TestOrganization",
"restrooms": "",
"kiosk": "",
"osm_tags": "" 
} 
},
{
 "type": "Feature",
"geometry": {
 "type": "Point",
"coordinates": [ -149.726349, 61.2263221 ] 
},
"properties": {
 "name": "Centennial",
"trail1": "Centennial",
"id": 384,
"trail_ids": 286,
"steward_id": "MOA Parks and Rec.",
"address": "",
"parking": "",
"drinkwater": "",
"source": "TestOrganization",
"restrooms": "",
"kiosk": "",
"osm_tags": "" 
} 
},
{
 "type": "Feature",
"geometry": {
 "type": "Point",
"coordinates": [ -149.788686, 61.2263388 ] 
},
"properties": {
 "name": "Glenn Hwy Trail",
"trail1": "Glenn Hwy Trail",
"id": -5,
"trail_ids": 288,
"steward_id": "NA",
"address": "",
"parking": "",
"drinkwater": "",
"source": "TestOrganization",
"restrooms": "",
"kiosk": "",
"osm_tags": "" 
} 
},
{
 "type": "Feature",
"geometry": {
 "type": "Point",
"coordinates": [ -149.740198, 61.2260583 ] 
},
"properties": {
 "name": "Glenn Hwy Trail",
"trail1": "Glenn Hwy Trail",
"id": -5,
"trail_ids": 289,
"steward_id": "NA",
"address": "",
"parking": "",
"drinkwater": "",
"source": "TestOrganization",
"restrooms": "",
"kiosk": "",
"osm_tags": "" 
} 
},
{
 "type": "Feature",
"geometry": {
 "type": "Point",
"coordinates": [ -149.719345, 61.2266852 ] 
},
"properties": {
 "name": "Centennial",
"trail1": "Centennial",
"id": 388,
"trail_ids": 290,
"steward_id": "MOA Parks and Rec.",
"address": "",
"parking": "",
"drinkwater": "",
"source": "TestOrganization",
"restrooms": "",
"kiosk": "",
"osm_tags": "" 
} 
},
{
 "type": "Feature",
"geometry": {
 "type": "Point",
"coordinates": [ -149.721241, 61.2257091 ] 
},
"properties": {
 "name": "Centennial",
"trail1": "Centennial",
"id": 389,
"trail_ids": 291,
"steward_id": "MOA Parks and Rec.",
"address": "",
"parking": "",
"drinkwater": "",
"source": "TestOrganization",
"restrooms": "",
"kiosk": "",
"osm_tags": "" 
} 
},
{
 "type": "Feature",
"geometry": {
 "type": "Point",
"coordinates": [ -149.726349, 61.2263221 ] 
},
"properties": {
 "name": "Centennial",
"trail1": "Centennial",
"id": 390,
"trail_ids": 292,
"steward_id": "MOA Parks and Rec.",
"address": "",
"parking": "",
"drinkwater": "",
"source": "TestOrganization",
"restrooms": "",
"kiosk": "",
"osm_tags": "" 
} 
},
{
 "type": "Feature",
"geometry": {
 "type": "Point",
"coordinates": [ -149.721241, 61.2257091 ] 
},
"properties": {
 "name": "Centennial",
"trail1": "Centennial",
"id": 391,
"trail_ids": 293,
"steward_id": "MOA Parks and Rec.",
"address": "",
"parking": "",
"drinkwater": "",
"source": "TestOrganization",
"restrooms": "",
"kiosk": "",
"osm_tags": "" 
} 
},
{
 "type": "Feature",
"geometry": {
 "type": "Point",
"coordinates": [ -149.721927, 61.2252585 ] 
},
"properties": {
 "name": "Centennial",
"trail1": "Centennial",
"id": 392,
"trail_ids": 294,
"steward_id": "MOA Parks and Rec.",
"address": "",
"parking": "",
"drinkwater": "",
"source": "TestOrganization",
"restrooms": "",
"kiosk": "",
"osm_tags": "" 
} 
},
{
 "type": "Feature",
"geometry": {
 "type": "Point",
"coordinates": [ -149.721235, 61.2254246 ] 
},
"properties": {
 "name": "Centennial",
"trail1": "Centennial",
"id": 393,
"trail_ids": 295,
"steward_id": "MOA Parks and Rec.",
"address": "",
"parking": "",
"drinkwater": "",
"source": "TestOrganization",
"restrooms": "",
"kiosk": "",
"osm_tags": "" 
} 
},
{
 "type": "Feature",
"geometry": {
 "type": "Point",
"coordinates": [ -149.761074, 61.2060498 ] 
},
"properties": {
 "name": "Chester Creek Trail",
"trail1": "Chester Creek Trail",
"id": 1148,
"trail_ids": 298,
"steward_id": "NA",
"address": "",
"parking": "",
"drinkwater": "",
"source": "TestOrganization",
"restrooms": "",
"kiosk": "",
"osm_tags": "" 
} 
},
{
 "type": "Feature",
"geometry": {
 "type": "Point",
"coordinates": [ -149.715043, 61.1423053 ] 
},
"properties": {
 "name": "The Hive",
"trail1": "The Hive",
"id": 0,
"trail_ids": 303,
"steward_id": "MOA Parks & Rec",
"address": "",
"parking": "",
"drinkwater": "",
"source": "TestOrganization",
"restrooms": "",
"kiosk": "",
"osm_tags": "" 
} 
},
{
 "type": "Feature",
"geometry": {
 "type": "Point",
"coordinates": [ -149.543804, 61.3780465 ] 
},
"properties": {
 "name": "Junkyard",
"trail1": "Junkyard",
"id": 76,
"trail_ids": 305,
"steward_id": "MOA Parks and Rec.",
"address": "",
"parking": "",
"drinkwater": "",
"source": "TestOrganization",
"restrooms": "",
"kiosk": "",
"osm_tags": "" 
} 
},
{
 "type": "Feature",
"geometry": {
 "type": "Point",
"coordinates": [ -149.543488, 61.3781149 ] 
},
"properties": {
 "name": "Junkyard",
"trail1": "Junkyard",
"id": 87,
"trail_ids": 314,
"steward_id": "NA",
"address": "",
"parking": "",
"drinkwater": "",
"source": "TestOrganization",
"restrooms": "",
"kiosk": "",
"osm_tags": "" 
} 
},
{
 "type": "Feature",
"geometry": {
 "type": "Point",
"coordinates": [ -149.546165, 61.3762708 ] 
},
"properties": {
 "name": "Junkyard",
"trail1": "Junkyard",
"id": 88,
"trail_ids": 315,
"steward_id": "MOA Parks and Rec.",
"address": "",
"parking": "",
"drinkwater": "",
"source": "TestOrganization",
"restrooms": "",
"kiosk": "",
"osm_tags": "" 
} 
},
{
 "type": "Feature",
"geometry": {
 "type": "Point",
"coordinates": [ -149.546165, 61.3762708 ] 
},
"properties": {
 "name": "Bridge Loop",
"trail1": "Bridge Loop",
"id": 89,
"trail_ids": 316,
"steward_id": "MOA Parks and Rec.",
"address": "",
"parking": "",
"drinkwater": "",
"source": "TestOrganization",
"restrooms": "",
"kiosk": "",
"osm_tags": "" 
} 
},
{
 "type": "Feature",
"geometry": {
 "type": "Point",
"coordinates": [ -149.920788, 61.2080172 ] 
},
"properties": {
 "name": "Chester Creek Trail",
"trail1": "Chester Creek Trail",
"id": -1,
"trail_ids": 337,
"steward_id": "MOA Parks and Rec.",
"address": "",
"parking": "",
"drinkwater": "",
"source": "TestOrganization",
"restrooms": "",
"kiosk": "",
"osm_tags": "" 
} 
},
{
 "type": "Feature",
"geometry": {
 "type": "Point",
"coordinates": [ -149.902292, 61.2041521 ] 
},
"properties": {
 "name": "Sullivan Nature Trail",
"trail1": "Sullivan Nature Trail",
"id": 183,
"trail_ids": 343,
"steward_id": "NA",
"address": "",
"parking": "",
"drinkwater": "",
"source": "TestOrganization",
"restrooms": "",
"kiosk": "",
"osm_tags": "" 
} 
},
{
 "type": "Feature",
"geometry": {
 "type": "Point",
"coordinates": [ -149.940631, 61.2048273 ] 
},
"properties": {
 "name": "Coastal Trail",
"trail1": "Coastal Trail",
"id": -2,
"trail_ids": 348,
"steward_id": "MOA Parks and Rec.",
"address": "",
"parking": "",
"drinkwater": "",
"source": "TestOrganization",
"restrooms": "",
"kiosk": "",
"osm_tags": "" 
} 
},
{
 "type": "Feature",
"geometry": {
 "type": "Point",
"coordinates": [ -149.720489,  61.179799 ] 
},
"properties": {
 "name": "Outgoing Trail",
"trail1": "Outgoing Trail",
"id": 1834,
"trail_ids": 358,
"steward_id": "MOA Parks and Rec.",
"address": "",
"parking": "",
"drinkwater": "",
"source": "TestOrganization",
"restrooms": "",
"kiosk": "",
"osm_tags": "" 
} 
},
{
 "type": "Feature",
"geometry": {
 "type": "Point",
"coordinates": [ -149.721443, 61.1796325 ] 
},
"properties": {
 "name": "Outgoing Trail",
"trail1": "Outgoing Trail",
"id": 1837,
"trail_ids": 360,
"steward_id": "MOA Parks and Rec.",
"address": "",
"parking": "",
"drinkwater": "",
"source": "TestOrganization",
"restrooms": "",
"kiosk": "",
"osm_tags": "" 
} 
},
{
 "type": "Feature",
"geometry": {
 "type": "Point",
"coordinates": [ -149.935058, 61.1866669 ] 
},
"properties": {
 "name": "Fish Creek",
"trail1": "Fish Creek",
"id": 1573,
"trail_ids": 392,
"steward_id": "MOA STREET_MAINTENANCE",
"address": "",
"parking": "",
"drinkwater": "",
"source": "TestOrganization",
"restrooms": "",
"kiosk": "",
"osm_tags": "" 
} 
},
{
 "type": "Feature",
"geometry": {
 "type": "Point",
"coordinates": [ -149.935182, 61.1865404 ] 
},
"properties": {
 "name": "Fish Creek",
"trail1": "Fish Creek",
"id": 1577,
"trail_ids": 393,
"steward_id": "MOA STREET_MAINTENANCE",
"address": "",
"parking": "",
"drinkwater": "",
"source": "TestOrganization",
"restrooms": "",
"kiosk": "",
"osm_tags": "" 
} 
},
{
 "type": "Feature",
"geometry": {
 "type": "Point",
"coordinates": [ -149.935182, 61.1865404 ] 
},
"properties": {
 "name": "Fish Creek",
"trail1": "Fish Creek",
"id": 1578,
"trail_ids": 394,
"steward_id": "MOA STREET_MAINTENANCE",
"address": "",
"parking": "",
"drinkwater": "",
"source": "TestOrganization",
"restrooms": "",
"kiosk": "",
"osm_tags": "" 
} 
},
{
 "type": "Feature",
"geometry": {
 "type": "Point",
"coordinates": [ -149.79947, 61.1860188 ] 
},
"properties": {
 "name": "Tour Of Anchorage",
"trail1": "Tour Of Anchorage",
"id": 1582,
"trail_ids": 395,
"steward_id": "MOA Parks and Rec.",
"address": "",
"parking": "",
"drinkwater": "",
"source": "TestOrganization",
"restrooms": "",
"kiosk": "",
"osm_tags": "" 
} 
},
{
 "type": "Feature",
"geometry": {
 "type": "Point",
"coordinates": [ -149.835393, 61.2009017 ] 
},
"properties": {
 "name": "Chester Creek Trail",
"trail1": "Chester Creek Trail",
"id": -1,
"trail_ids": 397,
"steward_id": "MOA Parks and Rec.",
"address": "",
"parking": "",
"drinkwater": "",
"source": "TestOrganization",
"restrooms": "",
"kiosk": "",
"osm_tags": "" 
} 
},
{
 "type": "Feature",
"geometry": {
 "type": "Point",
"coordinates": [ -149.823313, 61.1999475 ] 
},
"properties": {
 "name": "Tikishla Park Trail",
"trail1": "Tikishla Park Trail",
"id": 1134,
"trail_ids": 398,
"steward_id": "NA",
"address": "",
"parking": "",
"drinkwater": "",
"source": "TestOrganization",
"restrooms": "",
"kiosk": "",
"osm_tags": "" 
} 
},
{
 "type": "Feature",
"geometry": {
 "type": "Point",
"coordinates": [ -149.728165, 61.1387453 ] 
},
"properties": {
 "name": "Queen Bee Loop",
"trail1": "Queen Bee Loop",
"id": 0,
"trail_ids": 399,
"steward_id": "MOA Parks & Rec",
"address": "",
"parking": "",
"drinkwater": "",
"source": "TestOrganization",
"restrooms": "",
"kiosk": "",
"osm_tags": "" 
} 
},
{
 "type": "Feature",
"geometry": {
 "type": "Point",
"coordinates": [ -149.762128, 61.2024482 ] 
},
"properties": {
 "name": "Chester Creek Trail",
"trail1": "Chester Creek Trail",
"id": 1148,
"trail_ids": 400,
"steward_id": "NA",
"address": "",
"parking": "",
"drinkwater": "",
"source": "TestOrganization",
"restrooms": "",
"kiosk": "",
"osm_tags": "" 
} 
},
{
 "type": "Feature",
"geometry": {
 "type": "Point",
"coordinates": [ -149.756976, 61.2052416 ] 
},
"properties": {
 "name": "Chester Creek Trail",
"trail1": "Chester Creek Trail",
"id": 1148,
"trail_ids": 402,
"steward_id": "NA",
"address": "",
"parking": "",
"drinkwater": "",
"source": "TestOrganization",
"restrooms": "",
"kiosk": "",
"osm_tags": "" 
} 
},
{
 "type": "Feature",
"geometry": {
 "type": "Point",
"coordinates": [ -149.728972, 61.1416242 ] 
},
"properties": {
 "name": "Upper Gasline Trail",
"trail1": "Upper Gasline Trail",
"id": 3626,
"trail_ids": 404,
"steward_id": "MOA Parks and Rec.",
"address": "",
"parking": "",
"drinkwater": "",
"source": "TestOrganization",
"restrooms": "",
"kiosk": "",
"osm_tags": "" 
} 
},
{
 "type": "Feature",
"geometry": {
 "type": "Point",
"coordinates": [ -149.805264, 61.1847115 ] 
},
"properties": {
 "name": "Tour Of Anchorage",
"trail1": "Tour Of Anchorage",
"id": 1617,
"trail_ids": 410,
"steward_id": "MOA Parks and Rec.",
"address": "",
"parking": "",
"drinkwater": "",
"source": "TestOrganization",
"restrooms": "",
"kiosk": "",
"osm_tags": "" 
} 
},
{
 "type": "Feature",
"geometry": {
 "type": "Point",
"coordinates": [ -149.777247, 61.1655597 ] 
},
"properties": {
 "name": "Homecoming/poleline",
"trail1": "Homecoming/poleline",
"id": 2366,
"trail_ids": 411,
"steward_id": "MOA Parks and Rec.",
"address": "",
"parking": "",
"drinkwater": "",
"source": "TestOrganization",
"restrooms": "",
"kiosk": "",
"osm_tags": "" 
} 
},
{
 "type": "Feature",
"geometry": {
 "type": "Point",
"coordinates": [ -149.781745, 61.1654296 ] 
},
"properties": {
 "name": "Homecoming/poleline",
"trail1": "Homecoming/poleline",
"id": 2369,
"trail_ids": 413,
"steward_id": "NA",
"address": "",
"parking": "",
"drinkwater": "",
"source": "TestOrganization",
"restrooms": "",
"kiosk": "",
"osm_tags": "" 
} 
},
{
 "type": "Feature",
"geometry": {
 "type": "Point",
"coordinates": [ -149.760963,  61.165377 ] 
},
"properties": {
 "name": "Beaver Dam Trail",
"trail1": "Beaver Dam Trail",
"id": 2370,
"trail_ids": 414,
"steward_id": "MOA Parks and Rec.",
"address": "",
"parking": "",
"drinkwater": "",
"source": "TestOrganization",
"restrooms": "",
"kiosk": "",
"osm_tags": "" 
} 
},
{
 "type": "Feature",
"geometry": {
 "type": "Point",
"coordinates": [ -150.050272, 61.1655796 ] 
},
"properties": {
 "name": "Arlene's Way",
"trail1": "Arlene's Way",
"id": 2371,
"trail_ids": 415,
"steward_id": "NA",
"address": "",
"parking": "",
"drinkwater": "",
"source": "TestOrganization",
"restrooms": "",
"kiosk": "",
"osm_tags": "" 
} 
},
{
 "type": "Feature",
"geometry": {
 "type": "Point",
"coordinates": [ -149.905053, 61.2050234 ] 
},
"properties": {
 "name": "Chester Creek Trail",
"trail1": "Chester Creek Trail",
"id": -1,
"trail_ids": 420,
"steward_id": "MOA Parks and Rec.",
"address": "",
"parking": "",
"drinkwater": "",
"source": "TestOrganization",
"restrooms": "",
"kiosk": "",
"osm_tags": "" 
} 
},
{
 "type": "Feature",
"geometry": {
 "type": "Point",
"coordinates": [ -149.898213, 61.2051358 ] 
},
"properties": {
 "name": "Chester Creek Trail",
"trail1": "Chester Creek Trail",
"id": -1,
"trail_ids": 423,
"steward_id": "MOA Parks and Rec.",
"address": "",
"parking": "",
"drinkwater": "",
"source": "TestOrganization",
"restrooms": "",
"kiosk": "",
"osm_tags": "" 
} 
},
{
 "type": "Feature",
"geometry": {
 "type": "Point",
"coordinates": [ -149.93347, 61.1956441 ] 
},
"properties": {
 "name": "Fish Creek",
"trail1": "Fish Creek",
"id": 1244,
"trail_ids": 429,
"steward_id": "NA",
"address": "",
"parking": "",
"drinkwater": "",
"source": "TestOrganization",
"restrooms": "",
"kiosk": "",
"osm_tags": "" 
} 
},
{
 "type": "Feature",
"geometry": {
 "type": "Point",
"coordinates": [ -149.934471, 61.1955411 ] 
},
"properties": {
 "name": "Fish Creek",
"trail1": "Fish Creek",
"id": 1253,
"trail_ids": 431,
"steward_id": "NA",
"address": "",
"parking": "",
"drinkwater": "",
"source": "TestOrganization",
"restrooms": "",
"kiosk": "",
"osm_tags": "" 
} 
},
{
 "type": "Feature",
"geometry": {
 "type": "Point",
"coordinates": [ -149.717892, 61.1389059 ] 
},
"properties": {
 "name": "Hornet's Nest",
"trail1": "Hornet's Nest",
"id": 0,
"trail_ids": 432,
"steward_id": "MOA Parks & Rec",
"address": "",
"parking": "",
"drinkwater": "",
"source": "TestOrganization",
"restrooms": "",
"kiosk": "",
"osm_tags": "" 
} 
},
{
 "type": "Feature",
"geometry": {
 "type": "Point",
"coordinates": [ -149.794849, 61.2023608 ] 
},
"properties": {
 "name": "Russian Jack Spur",
"trail1": "Russian Jack Spur",
"id": 1167,
"trail_ids": 437,
"steward_id": "NA",
"address": "",
"parking": "",
"drinkwater": "",
"source": "TestOrganization",
"restrooms": "",
"kiosk": "",
"osm_tags": "" 
} 
},
{
 "type": "Feature",
"geometry": {
 "type": "Point",
"coordinates": [ -149.793443,  61.231434 ] 
},
"properties": {
 "name": "Mt. View Sch. Trail",
"trail1": "Mt. View Sch. Trail",
"id": 1619,
"trail_ids": 438,
"steward_id": "NA",
"address": "",
"parking": "",
"drinkwater": "",
"source": "TestOrganization",
"restrooms": "",
"kiosk": "",
"osm_tags": "" 
} 
},
{
 "type": "Feature",
"geometry": {
 "type": "Point",
"coordinates": [ -149.729392, 61.1382632 ] 
},
"properties": {
 "name": "Janice's Jive",
"trail1": "Janice's Jive",
"id": 0,
"trail_ids": 440,
"steward_id": "MOA Parks & Rec",
"address": "",
"parking": "",
"drinkwater": "",
"source": "TestOrganization",
"restrooms": "",
"kiosk": "",
"osm_tags": "" 
} 
},
{
 "type": "Feature",
"geometry": {
 "type": "Point",
"coordinates": [ -149.888118, 61.2035531 ] 
},
"properties": {
 "name": "Chester Creek Trail",
"trail1": "Chester Creek Trail",
"id": -1,
"trail_ids": 444,
"steward_id": "MOA Parks and Rec.",
"address": "",
"parking": "",
"drinkwater": "",
"source": "TestOrganization",
"restrooms": "",
"kiosk": "",
"osm_tags": "" 
} 
},
{
 "type": "Feature",
"geometry": {
 "type": "Point",
"coordinates": [ -149.899311, 61.2051654 ] 
},
"properties": {
 "name": "Chester Creek Trail",
"trail1": "Chester Creek Trail",
"id": -1,
"trail_ids": 448,
"steward_id": "MOA Parks and Rec.",
"address": "",
"parking": "",
"drinkwater": "",
"source": "TestOrganization",
"restrooms": "",
"kiosk": "",
"osm_tags": "" 
} 
},
{
 "type": "Feature",
"geometry": {
 "type": "Point",
"coordinates": [ -149.89974, 61.2051123 ] 
},
"properties": {
 "name": "Chester Creek Trail",
"trail1": "Chester Creek Trail",
"id": -1,
"trail_ids": 449,
"steward_id": "MOA Parks and Rec.",
"address": "",
"parking": "",
"drinkwater": "",
"source": "TestOrganization",
"restrooms": "",
"kiosk": "",
"osm_tags": "" 
} 
},
{
 "type": "Feature",
"geometry": {
 "type": "Point",
"coordinates": [ -149.906381, 61.2058641 ] 
},
"properties": {
 "name": "Chester Creek Trail",
"trail1": "Chester Creek Trail",
"id": -1,
"trail_ids": 451,
"steward_id": "MOA Parks and Rec.",
"address": "",
"parking": "",
"drinkwater": "",
"source": "TestOrganization",
"restrooms": "",
"kiosk": "",
"osm_tags": "" 
} 
},
{
 "type": "Feature",
"geometry": {
 "type": "Point",
"coordinates": [ -150.050524, 61.1624625 ] 
},
"properties": {
 "name": "Mize Loop",
"trail1": "Mize Loop",
"id": 2666,
"trail_ids": 454,
"steward_id": "MOA Parks and Rec.",
"address": "",
"parking": "",
"drinkwater": "",
"source": "TestOrganization",
"restrooms": "",
"kiosk": "",
"osm_tags": "" 
} 
},
{
 "type": "Feature",
"geometry": {
 "type": "Point",
"coordinates": [ -149.793408, 61.1596864 ] 
},
"properties": {
 "name": "Coyote Trail",
"trail1": "Coyote Trail",
"id": 2667,
"trail_ids": 455,
"steward_id": "US BLM",
"address": "",
"parking": "",
"drinkwater": "",
"source": "TestOrganization",
"restrooms": "",
"kiosk": "",
"osm_tags": "" 
} 
},
{
 "type": "Feature",
"geometry": {
 "type": "Point",
"coordinates": [ -149.767742, 61.1596271 ] 
},
"properties": {
 "name": "Viewpoint Trail",
"trail1": "Viewpoint Trail",
"id": 2668,
"trail_ids": 456,
"steward_id": "US BLM",
"address": "",
"parking": "",
"drinkwater": "",
"source": "TestOrganization",
"restrooms": "",
"kiosk": "",
"osm_tags": "" 
} 
},
{
 "type": "Feature",
"geometry": {
 "type": "Point",
"coordinates": [ -149.837666, 61.1997862 ] 
},
"properties": {
 "name": "Chester Creek Trail",
"trail1": "Chester Creek Trail",
"id": 1141,
"trail_ids": 457,
"steward_id": "NA",
"address": "",
"parking": "",
"drinkwater": "",
"source": "TestOrganization",
"restrooms": "",
"kiosk": "",
"osm_tags": "" 
} 
},
{
 "type": "Feature",
"geometry": {
 "type": "Point",
"coordinates": [ -150.018212, 61.1599958 ] 
},
"properties": {
 "name": "Lake Loop",
"trail1": "Lake Loop",
"id": 2671,
"trail_ids": 458,
"steward_id": "MOA Parks and Rec.",
"address": "",
"parking": "",
"drinkwater": "",
"source": "TestOrganization",
"restrooms": "",
"kiosk": "",
"osm_tags": "" 
} 
},
{
 "type": "Feature",
"geometry": {
 "type": "Point",
"coordinates": [ -150.05023, 61.1600986 ] 
},
"properties": {
 "name": "Mize Loop",
"trail1": "Mize Loop",
"id": 2674,
"trail_ids": 459,
"steward_id": "MOA Parks and Rec.",
"address": "",
"parking": "",
"drinkwater": "",
"source": "TestOrganization",
"restrooms": "",
"kiosk": "",
"osm_tags": "" 
} 
},
{
 "type": "Feature",
"geometry": {
 "type": "Point",
"coordinates": [ -149.80525, 61.1844857 ] 
},
"properties": {
 "name": "Tour Of Anchorage",
"trail1": "Tour Of Anchorage",
"id": 537,
"trail_ids": 461,
"steward_id": "MOA Parks and Rec.",
"address": "",
"parking": "",
"drinkwater": "",
"source": "TestOrganization",
"restrooms": "",
"kiosk": "",
"osm_tags": "" 
} 
},
{
 "type": "Feature",
"geometry": {
 "type": "Point",
"coordinates": [ -149.731297, 61.0172109 ] 
},
"properties": {
 "name": "Mchugh Creek Pedestrian",
"trail1": "Mchugh Creek Pedestrian",
"id": 4203,
"trail_ids": 468,
"steward_id": "AK DNR",
"address": "",
"parking": "",
"drinkwater": "",
"source": "TestOrganization",
"restrooms": "",
"kiosk": "",
"osm_tags": "" 
} 
},
{
 "type": "Feature",
"geometry": {
 "type": "Point",
"coordinates": [ -149.732107, 61.0165245 ] 
},
"properties": {
 "name": "Mchugh Creek Pedestrian",
"trail1": "Mchugh Creek Pedestrian",
"id": 4204,
"trail_ids": 469,
"steward_id": "AK DNR",
"address": "",
"parking": "",
"drinkwater": "",
"source": "TestOrganization",
"restrooms": "",
"kiosk": "",
"osm_tags": "" 
} 
},
{
 "type": "Feature",
"geometry": {
 "type": "Point",
"coordinates": [ -149.711905, 61.1787886 ] 
},
"properties": {
 "name": "Tank Trail",
"trail1": "Tank Trail",
"id": 1920,
"trail_ids": 470,
"steward_id": "US Army",
"address": "",
"parking": "",
"drinkwater": "",
"source": "TestOrganization",
"restrooms": "",
"kiosk": "",
"osm_tags": "" 
} 
},
{
 "type": "Feature",
"geometry": {
 "type": "Point",
"coordinates": [ -150.026502,  61.191672 ] 
},
"properties": {
 "name": "Coastal Trail",
"trail1": "Coastal Trail",
"id": -2,
"trail_ids": 472,
"steward_id": "MOA Parks and Rec.",
"address": "",
"parking": "",
"drinkwater": "",
"source": "TestOrganization",
"restrooms": "",
"kiosk": "",
"osm_tags": "" 
} 
},
{
 "type": "Feature",
"geometry": {
 "type": "Point",
"coordinates": [ -149.72062, 61.2333751 ] 
},
"properties": {
 "name": "Bartlett",
"trail1": "Bartlett",
"id": 335,
"trail_ids": 473,
"steward_id": "NA",
"address": "",
"parking": "",
"drinkwater": "",
"source": "TestOrganization",
"restrooms": "",
"kiosk": "",
"osm_tags": "" 
} 
},
{
 "type": "Feature",
"geometry": {
 "type": "Point",
"coordinates": [ -149.728902, 61.2309354 ] 
},
"properties": {
 "name": "Bartlett",
"trail1": "Bartlett",
"id": 337,
"trail_ids": 474,
"steward_id": "NA",
"address": "",
"parking": "",
"drinkwater": "",
"source": "TestOrganization",
"restrooms": "",
"kiosk": "",
"osm_tags": "" 
} 
},
{
 "type": "Feature",
"geometry": {
 "type": "Point",
"coordinates": [ -149.716445, 61.2359515 ] 
},
"properties": {
 "name": "Bartlett",
"trail1": "Bartlett",
"id": 338,
"trail_ids": 475,
"steward_id": "NA",
"address": "",
"parking": "",
"drinkwater": "",
"source": "TestOrganization",
"restrooms": "",
"kiosk": "",
"osm_tags": "" 
} 
},
{
 "type": "Feature",
"geometry": {
 "type": "Point",
"coordinates": [ -149.727743, 61.2305761 ] 
},
"properties": {
 "name": "Bartlett",
"trail1": "Bartlett",
"id": 339,
"trail_ids": 476,
"steward_id": "NA",
"address": "",
"parking": "",
"drinkwater": "",
"source": "TestOrganization",
"restrooms": "",
"kiosk": "",
"osm_tags": "" 
} 
},
{
 "type": "Feature",
"geometry": {
 "type": "Point",
"coordinates": [ -149.727892, 61.2303534 ] 
},
"properties": {
 "name": "Bartlett",
"trail1": "Bartlett",
"id": 341,
"trail_ids": 477,
"steward_id": "NA",
"address": "",
"parking": "",
"drinkwater": "",
"source": "TestOrganization",
"restrooms": "",
"kiosk": "",
"osm_tags": "" 
} 
},
{
 "type": "Feature",
"geometry": {
 "type": "Point",
"coordinates": [ -149.808202, 61.2314639 ] 
},
"properties": {
 "name": "Bragaw",
"trail1": "Bragaw",
"id": 363,
"trail_ids": 478,
"steward_id": "NA",
"address": "",
"parking": "",
"drinkwater": "",
"source": "TestOrganization",
"restrooms": "",
"kiosk": "",
"osm_tags": "" 
} 
},
{
 "type": "Feature",
"geometry": {
 "type": "Point",
"coordinates": [ -149.93964, 61.2050027 ] 
},
"properties": {
 "name": "Coastal Trail",
"trail1": "Coastal Trail",
"id": -2,
"trail_ids": 481,
"steward_id": "MOA Parks and Rec.",
"address": "",
"parking": "",
"drinkwater": "",
"source": "TestOrganization",
"restrooms": "",
"kiosk": "",
"osm_tags": "" 
} 
},
{
 "type": "Feature",
"geometry": {
 "type": "Point",
"coordinates": [ -149.729065, 61.1420753 ] 
},
"properties": {
 "name": "The Hive",
"trail1": "The Hive",
"id": 0,
"trail_ids": 483,
"steward_id": "MOA Parks & Rec",
"address": "",
"parking": "",
"drinkwater": "",
"source": "TestOrganization",
"restrooms": "",
"kiosk": "",
"osm_tags": "" 
} 
},
{
 "type": "Feature",
"geometry": {
 "type": "Point",
"coordinates": [ -149.718122, 61.1385627 ] 
},
"properties": {
 "name": "Janice's Jive",
"trail1": "Janice's Jive",
"id": 0,
"trail_ids": 485,
"steward_id": "MOA Parks & Rec",
"address": "",
"parking": "",
"drinkwater": "",
"source": "TestOrganization",
"restrooms": "",
"kiosk": "",
"osm_tags": "" 
} 
},
{
 "type": "Feature",
"geometry": {
 "type": "Point",
"coordinates": [ -149.743193, 61.1386123 ] 
},
"properties": {
 "name": "Queen Bee Loop",
"trail1": "Queen Bee Loop",
"id": 0,
"trail_ids": 486,
"steward_id": "MOA Parks & Rec",
"address": "",
"parking": "",
"drinkwater": "",
"source": "TestOrganization",
"restrooms": "",
"kiosk": "",
"osm_tags": "" 
} 
},
{
 "type": "Feature",
"geometry": {
 "type": "Point",
"coordinates": [ -149.837792, 61.2007268 ] 
},
"properties": {
 "name": "Chester Creek Trail",
"trail1": "Chester Creek Trail",
"id": 1122,
"trail_ids": 487,
"steward_id": "MOA Parks and Rec.",
"address": "",
"parking": "",
"drinkwater": "",
"source": "TestOrganization",
"restrooms": "",
"kiosk": "",
"osm_tags": "" 
} 
},
{
 "type": "Feature",
"geometry": {
 "type": "Point",
"coordinates": [ -149.718122, 61.1385627 ] 
},
"properties": {
 "name": "Upper Gasline Trail",
"trail1": "Upper Gasline Trail",
"id": 3722,
"trail_ids": 490,
"steward_id": "NA",
"address": "",
"parking": "",
"drinkwater": "",
"source": "TestOrganization",
"restrooms": "",
"kiosk": "",
"osm_tags": "" 
} 
},
{
 "type": "Feature",
"geometry": {
 "type": "Point",
"coordinates": [ -149.795855, 61.1874664 ] 
},
"properties": {
 "name": "Tour Of Anchorage",
"trail1": "Tour Of Anchorage",
"id": 1548,
"trail_ids": 494,
"steward_id": "MOA Parks and Rec.",
"address": "",
"parking": "",
"drinkwater": "",
"source": "TestOrganization",
"restrooms": "",
"kiosk": "",
"osm_tags": "" 
} 
},
{
 "type": "Feature",
"geometry": {
 "type": "Point",
"coordinates": [ -149.762948, 61.2002273 ] 
},
"properties": {
 "name": "Beaver Pl. Trail",
"trail1": "Beaver Pl. Trail",
"id": 1128,
"trail_ids": 498,
"steward_id": "MOA STREET_MAINTENANCE",
"address": "",
"parking": "",
"drinkwater": "",
"source": "TestOrganization",
"restrooms": "",
"kiosk": "",
"osm_tags": "" 
} 
},
{
 "type": "Feature",
"geometry": {
 "type": "Point",
"coordinates": [ -149.785925, 61.2169686 ] 
},
"properties": {
 "name": "Wonder Park Sch. Trail",
"trail1": "Wonder Park Sch. Trail",
"id": 543,
"trail_ids": 504,
"steward_id": "MOA STREET_MAINTENANCE",
"address": "",
"parking": "",
"drinkwater": "",
"source": "TestOrganization",
"restrooms": "",
"kiosk": "",
"osm_tags": "" 
} 
},
{
 "type": "Feature",
"geometry": {
 "type": "Point",
"coordinates": [ -149.88852, 61.2035528 ] 
},
"properties": {
 "name": "Chester Creek Trail",
"trail1": "Chester Creek Trail",
"id": -1,
"trail_ids": 507,
"steward_id": "MOA Parks and Rec.",
"address": "",
"parking": "",
"drinkwater": "",
"source": "TestOrganization",
"restrooms": "",
"kiosk": "",
"osm_tags": "" 
} 
},
{
 "type": "Feature",
"geometry": {
 "type": "Point",
"coordinates": [ -149.866575, 61.2016389 ] 
},
"properties": {
 "name": "Chester Creek Trail",
"trail1": "Chester Creek Trail",
"id": -1,
"trail_ids": 508,
"steward_id": "MOA Parks and Rec.",
"address": "",
"parking": "",
"drinkwater": "",
"source": "TestOrganization",
"restrooms": "",
"kiosk": "",
"osm_tags": "" 
} 
},
{
 "type": "Feature",
"geometry": {
 "type": "Point",
"coordinates": [ -149.715043, 61.1423053 ] 
},
"properties": {
 "name": "Yellow Jacket",
"trail1": "Yellow Jacket",
"id": 0,
"trail_ids": 509,
"steward_id": "MOA Parks & Rec",
"address": "",
"parking": "",
"drinkwater": "",
"source": "TestOrganization",
"restrooms": "",
"kiosk": "",
"osm_tags": "" 
} 
},
{
 "type": "Feature",
"geometry": {
 "type": "Point",
"coordinates": [ -149.798906, 61.1986709 ] 
},
"properties": {
 "name": "Russian Jack Spur",
"trail1": "Russian Jack Spur",
"id": 1199,
"trail_ids": 511,
"steward_id": "NA",
"address": "",
"parking": "",
"drinkwater": "",
"source": "TestOrganization",
"restrooms": "",
"kiosk": "",
"osm_tags": "" 
} 
},
{
 "type": "Feature",
"geometry": {
 "type": "Point",
"coordinates": [ -149.793206, 61.2033678 ] 
},